NCTId,BriefTitle,OverallStatus,Facility,City,State,Zip,Country,SiteStatus,Latitude,Longitude
NCT07074496,"Efficacy, Safety, and Pharmacokinetics of ThisCART19A Combined With Olverembatinib in Patients With Newly Diagnosed Philadelphia Chromosome-Positive Acute Lymphoblastic Leukemia.",ACTIVE_NOT_RECRUITING,"The First Affiliated Hospital of Soochow University, Jiangsu Institute of Hematology",Suzhou,Jiangsu,215000,China,,31.30408,120.59538
NCT07074496,"Efficacy, Safety, and Pharmacokinetics of ThisCART19A Combined With Olverembatinib in Patients With Newly Diagnosed Philadelphia Chromosome-Positive Acute Lymphoblastic Leukemia.",ACTIVE_NOT_RECRUITING,"The First Affiliated Hospital of Soochow University, Jiangsu Institute of Hematology",Suzhou,Jiangsu,215006,China,,31.30408,120.59538
NCT07053670,A Clinical Study Exploring CT1190B in the Treatment of Patients With Relapsed/Refractory B-cell Non-Hodgkin Lymphoma ( CT1190B-CG11001 ),RECRUITING,"Tongji Hospital Affiliated to Tongji Medical College, Huazhong University of Science and Technology",Wuhang,Hubei,430030,China,RECRUITING,,
NCT02919046,Study Evaluating the Efficacy and Safety With CAR-T for Relapsed or Refractory Neuroblastoma in Children,UNKNOWN,Nanjing Children's Hospital,Nanjing,Jiangsu,210008,China,RECRUITING,32.06167,118.77778
NCT02919046,Study Evaluating the Efficacy and Safety With CAR-T for Relapsed or Refractory Neuroblastoma in Children,UNKNOWN,Children's Hospital of Fudan University,Shanghai,Shanghai Municipality,201102,China,RECRUITING,31.22222,121.45806
NCT05237986,Cognitive Aftereffects of Neurotoxicity in Children and Young Adults With Relapsed/Refractory Hematologic Malignancies Who Receive CAR T-cell Therapy,RECRUITING,Children s Hospital of Los Angeles,Los Angeles,California,90027,United States,RECRUITING,34.05223,-118.24368
NCT05237986,Cognitive Aftereffects of Neurotoxicity in Children and Young Adults With Relapsed/Refractory Hematologic Malignancies Who Receive CAR T-cell Therapy,RECRUITING,National Institutes of Health Clinical Center,Bethesda,Maryland,20892,United States,RECRUITING,38.98067,-77.10026
NCT05237986,Cognitive Aftereffects of Neurotoxicity in Children and Young Adults With Relapsed/Refractory Hematologic Malignancies Who Receive CAR T-cell Therapy,RECRUITING,Seattle Children s Hospital,Seattle,Washington,98105,United States,RECRUITING,47.60621,-122.33207
NCT04007029,Modified Immune Cells (CD19/CD20 CAR-T Cells) in Treating Patients With Recurrent or Refractory B-Cell Lymphoma or Chronic Lymphocytic Leukemia,ACTIVE_NOT_RECRUITING,UCLA / Jonsson Comprehensive Cancer Center,Los Angeles,California,90095,United States,,34.05223,-118.24368
NCT05645601,CAR-NK Targeted CD19 for r/r B-cell Malignancies,UNKNOWN,The Fifth Medical Center of Chinese People's Liberation Army (PLA) General Hospital,Beijing,Beijing Municipality,100071,China,RECRUITING,39.9075,116.39723
NCT04981119,Solid Tumor Analysis for HLA Loss of Heterozygosity (LOH) and Apheresis for CAR T- Cell Manufacturing,RECRUITING,Banner Health,Gilbert,Arizona,85234,United States,RECRUITING,33.35283,-111.78903
NCT04981119,Solid Tumor Analysis for HLA Loss of Heterozygosity (LOH) and Apheresis for CAR T- Cell Manufacturing,RECRUITING,Mayo Clinic Hospital,Phoenix,Arizona,85054,United States,RECRUITING,33.44838,-112.07404
NCT04981119,Solid Tumor Analysis for HLA Loss of Heterozygosity (LOH) and Apheresis for CAR T- Cell Manufacturing,RECRUITING,City of Hope,Duarte,California,90101,United States,COMPLETED,34.13945,-117.97729
NCT04981119,Solid Tumor Analysis for HLA Loss of Heterozygosity (LOH) and Apheresis for CAR T- Cell Manufacturing,RECRUITING,University of California San Diego,La Jolla,California,92093,United States,RECRUITING,32.84727,-117.2742
NCT04981119,Solid Tumor Analysis for HLA Loss of Heterozygosity (LOH) and Apheresis for CAR T- Cell Manufacturing,RECRUITING,Stanford University,Palo Alto,California,94304,United States,RECRUITING,37.44188,-122.14302
NCT04981119,Solid Tumor Analysis for HLA Loss of Heterozygosity (LOH) and Apheresis for CAR T- Cell Manufacturing,RECRUITING,UCLA Medical Center,Santa Monica,California,90404,United States,RECRUITING,34.01949,-118.49138
NCT04981119,Solid Tumor Analysis for HLA Loss of Heterozygosity (LOH) and Apheresis for CAR T- Cell Manufacturing,RECRUITING,Mayo Clinic Jacksonville,Jacksonville,Florida,32224,United States,RECRUITING,30.33218,-81.65565
NCT04981119,Solid Tumor Analysis for HLA Loss of Heterozygosity (LOH) and Apheresis for CAR T- Cell Manufacturing,RECRUITING,Moffitt Cancer Center,Tampa,Florida,33136,United States,RECRUITING,27.94752,-82.45843
NCT04981119,Solid Tumor Analysis for HLA Loss of Heterozygosity (LOH) and Apheresis for CAR T- Cell Manufacturing,RECRUITING,Massachusetts General Hospital/Dana Farber Cancer Institute,Boston,Massachusetts,02114,United States,COMPLETED,42.35843,-71.05977
NCT04981119,Solid Tumor Analysis for HLA Loss of Heterozygosity (LOH) and Apheresis for CAR T- Cell Manufacturing,RECRUITING,Mayo Clinic Rochester,Rochester,Minnesota,55905,United States,RECRUITING,44.02163,-92.4699
NCT04981119,Solid Tumor Analysis for HLA Loss of Heterozygosity (LOH) and Apheresis for CAR T- Cell Manufacturing,RECRUITING,Washington University,St Louis,Missouri,63110,United States,RECRUITING,38.62727,-90.19789
NCT04981119,Solid Tumor Analysis for HLA Loss of Heterozygosity (LOH) and Apheresis for CAR T- Cell Manufacturing,RECRUITING,NYU Langone Medical Center,New York,New York,10016,United States,RECRUITING,40.71427,-74.00597
NCT04981119,Solid Tumor Analysis for HLA Loss of Heterozygosity (LOH) and Apheresis for CAR T- Cell Manufacturing,RECRUITING,The Ohio State University Comprehensive Cancer Center,Columbus,Ohio,43210,United States,RECRUITING,39.96118,-82.99879
NCT04981119,Solid Tumor Analysis for HLA Loss of Heterozygosity (LOH) and Apheresis for CAR T- Cell Manufacturing,RECRUITING,Vanderbilt University Medical Center,Nashville,Tennessee,37232,United States,RECRUITING,36.16589,-86.78444
NCT04981119,Solid Tumor Analysis for HLA Loss of Heterozygosity (LOH) and Apheresis for CAR T- Cell Manufacturing,RECRUITING,MD Anderson Cancer Center,Houston,Texas,77030,United States,COMPLETED,29.76328,-95.36327
NCT04981119,Solid Tumor Analysis for HLA Loss of Heterozygosity (LOH) and Apheresis for CAR T- Cell Manufacturing,RECRUITING,Fred Hutchinson Cancer Center,Seattle,Washington,98109,United States,RECRUITING,47.60621,-122.33207
NCT06377228,A Study of TAK-007 in Adults With Refractory Lupus Nephritis (LN) or Refractory Systemic Sclerosis (SSc),WITHDRAWN,University of Texas Health Science Center,Houston,Texas,77030,United States,,29.76328,-95.36327
NCT06461624,Clinical Trial of Autologous GPC3 CAR-T Cells (CBG166) Therapy for Advanced Hepatocellular Carcinoma,RECRUITING,"First Affiliated Hospital, Medical College of Zhejiang University",Hangzhou,Zhejiang,310003,China,RECRUITING,30.29365,120.16142
NCT06461624,Clinical Trial of Autologous GPC3 CAR-T Cells (CBG166) Therapy for Advanced Hepatocellular Carcinoma,RECRUITING,"the First Affiliated Hospital, School of Medicine, Zhejiang University",Hangzhou,Zhejiang,310009,China,RECRUITING,30.29365,120.16142
NCT06912529,Axicabtagene Ciloleucel CAR T-cells in Patients With Relapsed or Refractory Primary Mediastinal B-cell Lymphoma,TERMINATED,"Medizinische Klinik A Hämatologie, Hämostaseologie, Onkologie und Pneumologie Universitätsklinikum Münster",Münster,,48149,Germany,,51.96236,7.62571
NCT07523529,Biomarker-Guided Dual-Target CAR-T Cells for Advanced Solid Tumors,RECRUITING,Peking University Shenzhen Hospital,Shenzhen,Guangdong,518036,China,RECRUITING,22.54554,114.0683
NCT05563545,Anti-CD19 CAR-Engineered NK Cells in the Treatment of Relapsed/Refractory Acute Lymphoblastic Leukemia,COMPLETED,Hebei Yanda Ludaopei Hospital,Sanhe,Hebei,,China,,39.98049,117.06887
NCT06552572,Glofitamab in Relapsed or Refractory Diffuse Large B-cell Lymphoma After CD19 Chimeric Antigen Receptor T-cell Therapy,ACTIVE_NOT_RECRUITING,Samsung Medical Center,Seoul,,135-710,South Korea,,37.566,126.9784
NCT02892695,PCAR-119 Bridge Immunotherapy Prior to Stem Cell Transplant in Treating Patients With CD19 Positive Leukemia and Lymphoma,UNKNOWN,"PersonGen BioTherapeutics (Suzhou) Co., Ltd.",Suzhou,Jiangsu,215123,China,RECRUITING,31.30408,120.59538
NCT06027957,CD19 CAR T-Cell Therapy for R/R Non-Hodgkin Lymphoma and Acute Lymphoblastic Leukemia,COMPLETED,Vinmec Research Institute of Stem Cell and Gene Technology,Hanoi,Hanoi,100000,Vietnam,,21.0245,105.84117
NCT07333573,A Hypoxia-Inducible CAR-T Cell Targeting AXL and CD73 for Advanced Gastric Cancer,NOT_YET_RECRUITING,Fudan University Zhongshan Hospital,Shanghai,Shanghai Municipality,200032,China,,31.22222,121.45806
NCT03283631,Intracerebral EGFR-vIII CAR-T Cells for Recurrent GBM,TERMINATED,Duke University Medical Center,Durham,North Carolina,27710,United States,,35.99403,-78.89862
NCT05902845,RD13-02 CAR-T Cell Injection for Patients With r/r CD7+ T-ALL/T-LBL,COMPLETED,The First Affiliated Hospital of University of Science and Technology of China,Hefei,Anhui,230002,China,,31.86389,117.28083
NCT04796441,Clinical Study of Universal CAR-γδT Cell Injection in the Treatment of Patients With Relapsed AML After Transplantation,UNKNOWN,Hebei yanda Ludaopei Hospital,Yanda,Hebei,,China,RECRUITING,,
NCT05467254,Evaluate the Safety and Efficacy of CLL1+CD33 CAR-T in Patients With R/R AML,UNKNOWN,Mingming Zhang Zhang,Hangzhou,,,China,,30.29365,120.16142
NCT02954445,A Clinical Research of BCMA-Targeted CAR-T in B Cell Malignancies,UNKNOWN,Southwest Hospital of Third Millitary Medical University,Chongqing,Chongqing Municipality,400000,China,RECRUITING,29.56026,106.55771
NCT07463781,Neurocognitive Assessment in Adults Undergoing CD19 Targeted CAR-T Cell Therapy,NOT_YET_RECRUITING,SCDU Ematologia - AOU SS. Antonio e Biagio e Cesare Arrigo di Alessandria,Alessandria,,,Italy,,44.90924,8.61007
NCT07463781,Neurocognitive Assessment in Adults Undergoing CD19 Targeted CAR-T Cell Therapy,NOT_YET_RECRUITING,"Clinica di Ematologia, AOU Ospedali Riuniti",Ancona,,,Italy,,43.60717,13.5103
NCT07463781,Neurocognitive Assessment in Adults Undergoing CD19 Targeted CAR-T Cell Therapy,NOT_YET_RECRUITING,USD-TMO Adulti - ASST Spedali Civili di Brescia,Brescia,,,Italy,,45.53558,10.21472
NCT07463781,Neurocognitive Assessment in Adults Undergoing CD19 Targeted CAR-T Cell Therapy,NOT_YET_RECRUITING,Divisione di Ematologia - A.O. Ospedali Riuniti Villa Sofia-Cervello,Palermo,,,Italy,,38.1166,13.3636
NCT07463781,Neurocognitive Assessment in Adults Undergoing CD19 Targeted CAR-T Cell Therapy,NOT_YET_RECRUITING,Ematologia - Grande Ospedale Metropolitano Bianchi Melacrino Morelli,Reggio Calabria,,,Italy,,38.11047,15.66129
NCT07463781,Neurocognitive Assessment in Adults Undergoing CD19 Targeted CAR-T Cell Therapy,NOT_YET_RECRUITING,Ematologia - Università Cattolica S. Cuore,Roma,,,Italy,,44.99364,11.10642
NCT07463781,Neurocognitive Assessment in Adults Undergoing CD19 Targeted CAR-T Cell Therapy,NOT_YET_RECRUITING,"SC Ematologia - Ospedale ""S.G. Moscati""",Taranto,,,Italy,,40.46438,17.24707
NCT07463781,Neurocognitive Assessment in Adults Undergoing CD19 Targeted CAR-T Cell Therapy,NOT_YET_RECRUITING,SOC Clinica Ematologica - Azienda Sanitaria Universitaria Friuli Centrale (ASU FC),Udine,,,Italy,,46.0693,13.23715
NCT06684639,A Study on the Efficacy of GD2-CAR T Cells in the Treatment of Neuroblastoma,RECRUITING,The General Hospital of Western Theater Command,Chengdu,Sichuan,,China,RECRUITING,30.66667,104.06667
NCT06647329,CAR-T Technology for Recurrent/Refractory Malignant Hematological and Lymphatic Tumors,NOT_YET_RECRUITING,the First Hospital of Zhengzhou University,Zhengzhou,Henan,470000,China,,34.75778,113.64861
NCT06553872,Phase 2 Open Label Randomized Study of Pirtobrutinib and Brexucabtagene Autoleucel in R/R MCL,RECRUITING,Stanford Cancer Center,Stanford,California,94305,United States,NOT_YET_RECRUITING,37.42411,-122.16608
NCT06553872,Phase 2 Open Label Randomized Study of Pirtobrutinib and Brexucabtagene Autoleucel in R/R MCL,RECRUITING,Univ of Miami - Sylvester Comprehensive Cancer Center,Miami,Florida,33136,United States,RECRUITING,25.77427,-80.19366
NCT06553872,Phase 2 Open Label Randomized Study of Pirtobrutinib and Brexucabtagene Autoleucel in R/R MCL,RECRUITING,Moffitt Cancer Center,Tampa,Florida,33612,United States,RECRUITING,27.94752,-82.45843
NCT04853277,Patient Reported Outcomes and Patient Education in Cellular Therapy Patients,COMPLETED,Dartmouth-Hitchcock Medical Center,Lebanon,New Hampshire,03756,United States,,43.64229,-72.25176
NCT07156045,Study of Allogeneic Anti-PSMA CAR-NK Cell for Metastatic Castration-Resistant Prostate Cancer,RECRUITING,Cancer Hospital Chinese Academy of Medical Sciences,Beijing,Beijing Municipality,100000,China,RECRUITING,39.9075,116.39723
NCT06051695,"A Study to Evaluate the Safety and Efficacy of Mesothelin-Targeting Logic-gated CAR T, in Participants With Solid Tumors That Express MSLN and Have Lost HLA-A*02 Expression",RECRUITING,Banner Health,Gilbert,Arizona,85234,United States,RECRUITING,33.35283,-111.78903
NCT06051695,"A Study to Evaluate the Safety and Efficacy of Mesothelin-Targeting Logic-gated CAR T, in Participants With Solid Tumors That Express MSLN and Have Lost HLA-A*02 Expression",RECRUITING,UCSD Moores Cancer Center,La Jolla,California,92093,United States,RECRUITING,32.84727,-117.2742
NCT06051695,"A Study to Evaluate the Safety and Efficacy of Mesothelin-Targeting Logic-gated CAR T, in Participants With Solid Tumors That Express MSLN and Have Lost HLA-A*02 Expression",RECRUITING,UCLA Medical Center,Los Angeles,California,90404,United States,RECRUITING,34.05223,-118.24368
NCT06051695,"A Study to Evaluate the Safety and Efficacy of Mesothelin-Targeting Logic-gated CAR T, in Participants With Solid Tumors That Express MSLN and Have Lost HLA-A*02 Expression",RECRUITING,Stanford University,Stanford,California,94305,United States,RECRUITING,37.42411,-122.16608
NCT06051695,"A Study to Evaluate the Safety and Efficacy of Mesothelin-Targeting Logic-gated CAR T, in Participants With Solid Tumors That Express MSLN and Have Lost HLA-A*02 Expression",RECRUITING,Mayo Clinic,Jacksonville,Florida,32224,United States,RECRUITING,30.33218,-81.65565
NCT06051695,"A Study to Evaluate the Safety and Efficacy of Mesothelin-Targeting Logic-gated CAR T, in Participants With Solid Tumors That Express MSLN and Have Lost HLA-A*02 Expression",RECRUITING,Moffitt Cancer Center,Tampa,Florida,33606,United States,RECRUITING,27.94752,-82.45843
NCT06051695,"A Study to Evaluate the Safety and Efficacy of Mesothelin-Targeting Logic-gated CAR T, in Participants With Solid Tumors That Express MSLN and Have Lost HLA-A*02 Expression",RECRUITING,Mayo Clinic Rochester,Rochester,Minnesota,55905,United States,RECRUITING,44.02163,-92.4699
NCT06051695,"A Study to Evaluate the Safety and Efficacy of Mesothelin-Targeting Logic-gated CAR T, in Participants With Solid Tumors That Express MSLN and Have Lost HLA-A*02 Expression",RECRUITING,Washington University,St Louis,Missouri,63110,United States,RECRUITING,38.62727,-90.19789
NCT06051695,"A Study to Evaluate the Safety and Efficacy of Mesothelin-Targeting Logic-gated CAR T, in Participants With Solid Tumors That Express MSLN and Have Lost HLA-A*02 Expression",RECRUITING,NYU Langone Medical Center,New York,New York,10016,United States,RECRUITING,40.71427,-74.00597
NCT06051695,"A Study to Evaluate the Safety and Efficacy of Mesothelin-Targeting Logic-gated CAR T, in Participants With Solid Tumors That Express MSLN and Have Lost HLA-A*02 Expression",RECRUITING,The Ohio State University Comprehensive Cancer Center,Columbus,Ohio,43210,United States,RECRUITING,39.96118,-82.99879
NCT06051695,"A Study to Evaluate the Safety and Efficacy of Mesothelin-Targeting Logic-gated CAR T, in Participants With Solid Tumors That Express MSLN and Have Lost HLA-A*02 Expression",RECRUITING,Vanderbilt University Medical Center,Nashville,Tennessee,37232,United States,RECRUITING,36.16589,-86.78444
NCT06051695,"A Study to Evaluate the Safety and Efficacy of Mesothelin-Targeting Logic-gated CAR T, in Participants With Solid Tumors That Express MSLN and Have Lost HLA-A*02 Expression",RECRUITING,Fred Hutchinson Cancer Center,Seattle,Washington,98109,United States,RECRUITING,47.60621,-122.33207
NCT06961669,"Intravenous Autologous CD19 CAR-T Cells for R/ R MM, B-ALL, and B-Cell Lymphoma",RECRUITING,The First Affiliated Hospital of University of Science and Technology of China,Hefei,,,China,RECRUITING,31.86389,117.28083
NCT04928105,Senl-T7 CAR-T Cells for Treatment of Relapsed or Refractory CD7+ Lymphoma,UNKNOWN,Hebei yanda Ludaopei Hospital,Yanda,Hebei,,China,RECRUITING,,
NCT02588456,Pilot Study of Autologous Anti-CD22 Chimeric Antigen Receptor Redirected T Cells In Patients With Chemotherapy Resistant Or Refractory Acute Lymphoblastic Leukemia,TERMINATED,Abramson Cancer Center of the University of Pennsylvania,Philadelphia,Pennsylvania,19104,United States,,39.95238,-75.16362
NCT06695013,Immunobridging/Maintenance Therapy Versus Non-bridging Therapy in CAR-T Therapy for Low-risk R/R B-NHL,RECRUITING,Ruijin,Shanghai,Shanghai Municipality,,China,RECRUITING,31.22222,121.45806
NCT07361094,Autologous CD19/BCMA Dual-Target CAR-T for Relapsed/Refractory Autoimmune Diseases,RECRUITING,Beijing GoBroad Boren Hospital,Beijing,,100070,China,RECRUITING,39.9075,116.39723
NCT03680677,Frailty Phenotype Assessments to Optimize Treatment Strategies for Older Patients With Hematologic Malignancies,RECRUITING,Abramson Cancer Center of the University of Pennsylvania,Philadelphia,Pennsylvania,19104,United States,RECRUITING,39.95238,-75.16362
NCT04430530,4SCAR-T Therapy Post CD19-targeted Immunotherapy,UNKNOWN,Shenzhen Children's Hospital,Shenzhen,Guangdong,518000,China,RECRUITING,22.54554,114.0683
NCT04430530,4SCAR-T Therapy Post CD19-targeted Immunotherapy,UNKNOWN,"The Seventh Affilliated Hospital, Sun Yat-Sen University",Shenzhen,Guangdong,518107,China,RECRUITING,22.54554,114.0683
NCT04430530,4SCAR-T Therapy Post CD19-targeted Immunotherapy,UNKNOWN,Shijiazhuang Zhongxi Children Hospital,Shijiazhuang,Hebei,,China,RECRUITING,38.04139,114.47861
NCT06010862,Clinical Study of CEA-targeted CAR-T Therapy for CEA-positive Advanced/Metastatic Malignant Solid Tumors,RECRUITING,The First Affiliated Hospital of Nanchang University,Nanchang,Jiangxi,,China,RECRUITING,28.68396,115.85306
NCT06158139,Autologous CAR-T Cells Targeting B7-H3 in PDAC,RECRUITING,University of North Carolina at Chapel Hill Lineberger Comprehensive Cancer Center,Chapel Hill,North Carolina,27599,United States,RECRUITING,35.9132,-79.05584
NCT04276870,Orphan Indications for CD19 Redirected Autologous T Cells,RECRUITING,Children's Hospital of Philadelphia,Philadelphia,Pennsylvania,19104,United States,RECRUITING,39.95238,-75.16362
NCT03896854,CART-19 T Cell in CD19 Positive Relapsed or Refractory Acute Myeloid Leukemia (AML),UNKNOWN,The First Affiliated Hospital of Soochow University,Suzhou,Jiangsu,215000,China,RECRUITING,31.30408,120.59538
NCT07528105,Allogeneic Anti-CD7 CAR-T for Type 1 Diabetes,RECRUITING,"Zhongshan Hospital, Fudan University",Shanghai,,201508,China,RECRUITING,31.22222,121.45806
NCT06787560,CD7 CAR-T Cell Sequential Allo-HSCT for Non-malignant Blood and Immune System Diseases,RECRUITING,The first affiliated hospital of medical college of zhejiang university,Hangzhou,Zhejiang,310003,China,RECRUITING,30.29365,120.16142
NCT07059741,Integrated Radiotherapy-optimized ASCT Sequential CAR-T Therapy for Patients With Relapsed and Refractory B-NHL,RECRUITING,the First Affiliated Hospital of Soochow University,Suzhou,Jiangsu,215006,China,RECRUITING,31.30408,120.59538
NCT06857786,Postoperative Adjuvant Therapy for CT041 Gastric or Gastroesophageal Junction (G/GEJ) Adenocarcinoma Patients,NOT_YET_RECRUITING,Beijing Cancer Hospital,Beijing,Beijing Municipality,100142,China,,39.9075,116.39723
NCT06857786,Postoperative Adjuvant Therapy for CT041 Gastric or Gastroesophageal Junction (G/GEJ) Adenocarcinoma Patients,NOT_YET_RECRUITING,Beijing Gaobo Hospital,Beijing,Beijing Municipality,100142,China,,39.9075,116.39723
NCT06857786,Postoperative Adjuvant Therapy for CT041 Gastric or Gastroesophageal Junction (G/GEJ) Adenocarcinoma Patients,NOT_YET_RECRUITING,Nanjing Gulou Hospital,Nanjing,Jiangsu,,China,,32.06167,118.77778
NCT06963866,Comparing ASCT Followed by Anti-BCMA CAR-T vs. ASCT Alone in NDMM Patients Eligible for ASCT,NOT_YET_RECRUITING,The Affiliated Hospital oh Xuzhou Medical University,Xuzhou,Jiangsu,221006,China,,34.20442,117.28386
NCT04136756,NKTR-255 in Relapsed/Refractory Multiple Myeloma & Non-Hodgkin Lymphoma,COMPLETED,Western Regional Medical Center - CTCA,Goodyear,Arizona,85338,United States,,33.43532,-112.35821
NCT04136756,NKTR-255 in Relapsed/Refractory Multiple Myeloma & Non-Hodgkin Lymphoma,COMPLETED,City of Hope,Duarte,California,91010,United States,,34.13945,-117.97729
NCT04136756,NKTR-255 in Relapsed/Refractory Multiple Myeloma & Non-Hodgkin Lymphoma,COMPLETED,"University of California, San Francisco",San Francisco,California,94143,United States,,37.77493,-122.41942
NCT04136756,NKTR-255 in Relapsed/Refractory Multiple Myeloma & Non-Hodgkin Lymphoma,COMPLETED,H. Lee Moffitt Cancer Center and Research Institute,Tampa,Florida,33612,United States,,27.94752,-82.45843
NCT04136756,NKTR-255 in Relapsed/Refractory Multiple Myeloma & Non-Hodgkin Lymphoma,COMPLETED,"Winship Cancer Institute, Emory University",Atlanta,Georgia,30322,United States,,33.749,-84.38798
NCT04136756,NKTR-255 in Relapsed/Refractory Multiple Myeloma & Non-Hodgkin Lymphoma,COMPLETED,University of Michigan,Ann Arbor,Michigan,48109,United States,,42.27756,-83.74088
NCT04136756,NKTR-255 in Relapsed/Refractory Multiple Myeloma & Non-Hodgkin Lymphoma,COMPLETED,University of Minnesota,Minneapolis,Minnesota,55455,United States,,44.97997,-93.26384
NCT04136756,NKTR-255 in Relapsed/Refractory Multiple Myeloma & Non-Hodgkin Lymphoma,COMPLETED,Memorial Sloan Kettering Cancer Center,New York,New York,10065,United States,,40.71427,-74.00597
NCT04136756,NKTR-255 in Relapsed/Refractory Multiple Myeloma & Non-Hodgkin Lymphoma,COMPLETED,New York Medical College,Valhalla,New York,10595,United States,,41.07482,-73.77513
NCT04136756,NKTR-255 in Relapsed/Refractory Multiple Myeloma & Non-Hodgkin Lymphoma,COMPLETED,Duke University Health System,Durham,North Carolina,27705,United States,,35.99403,-78.89862
NCT04136756,NKTR-255 in Relapsed/Refractory Multiple Myeloma & Non-Hodgkin Lymphoma,COMPLETED,MD Anderson Cancer Center,Houston,Texas,77030,United States,,29.76328,-95.36327
NCT04136756,NKTR-255 in Relapsed/Refractory Multiple Myeloma & Non-Hodgkin Lymphoma,COMPLETED,Virginia Cancer Specialists,Fairfax,Virginia,22031,United States,,38.84622,-77.30637
NCT04136756,NKTR-255 in Relapsed/Refractory Multiple Myeloma & Non-Hodgkin Lymphoma,COMPLETED,University of Washington,Seattle,Washington,98109,United States,,47.60621,-122.33207
NCT07143929,To Observe the CD7-targeted CAR-T Therapy in the Treatment of r/r PTCL,RECRUITING,Peking University People's Hospital,Beijing,,,China,RECRUITING,39.9075,116.39723
NCT03182803,CTLA-4 and PD-1 Antibodies Expressing Mesothelin-CAR-T Cells for Mesothelin Positive Advanced Solid Tumor,UNKNOWN,Ningbo No.5 Hospital (Ningbo Cancer Hospital),Ningbo,Zhejiang,315201,China,RECRUITING,29.87819,121.54945
NCT06333483,"Obe-cel in Adolescent [Applicable in UK Only] and Adult Severe, Refractory Systemic Lupus Erythematosus",RECRUITING,Hospital Universitari Vall Hebrón,Barcelona,,08035,Spain,RECRUITING,41.38879,2.15899
NCT06333483,"Obe-cel in Adolescent [Applicable in UK Only] and Adult Severe, Refractory Systemic Lupus Erythematosus",RECRUITING,Hospital Universitari i Politecnic La Fe,Valencia,,106046026,Spain,RECRUITING,39.47391,-0.37966
NCT06333483,"Obe-cel in Adolescent [Applicable in UK Only] and Adult Severe, Refractory Systemic Lupus Erythematosus",RECRUITING,Addenbrookes Hospital,Cambridge,,CB2 0QQ,United Kingdom,RECRUITING,52.2,0.11667
NCT06333483,"Obe-cel in Adolescent [Applicable in UK Only] and Adult Severe, Refractory Systemic Lupus Erythematosus",RECRUITING,University College London Hospitals NHS Foundation Trust,London,,NW1 2PG,United Kingdom,RECRUITING,51.50853,-0.12574
NCT06333483,"Obe-cel in Adolescent [Applicable in UK Only] and Adult Severe, Refractory Systemic Lupus Erythematosus",RECRUITING,Great Ormond Street Hospital,London,,WC1N 3JH,United Kingdom,RECRUITING,51.50853,-0.12574
NCT06333483,"Obe-cel in Adolescent [Applicable in UK Only] and Adult Severe, Refractory Systemic Lupus Erythematosus",RECRUITING,"Manchester Royal Infirmary, Manchester University NHS Foundation Trust,",Manchester,,M13 9WL,United Kingdom,RECRUITING,53.48095,-2.23743
NCT05537766,Study of Brexucabtagene Autoleucel in Adults With Rare B-cell Malignancies,TERMINATED,City of Hope (City of Hope National Medical Center),Duarte,California,91010,United States,,34.13945,-117.97729
NCT05537766,Study of Brexucabtagene Autoleucel in Adults With Rare B-cell Malignancies,TERMINATED,Stanford Cancer Institute,Stanford,California,94305,United States,,37.42411,-122.16608
NCT05537766,Study of Brexucabtagene Autoleucel in Adults With Rare B-cell Malignancies,TERMINATED,Colorado Blood Cancer Institute,Denver,Colorado,80218,United States,,39.73915,-104.9847
NCT05537766,Study of Brexucabtagene Autoleucel in Adults With Rare B-cell Malignancies,TERMINATED,Georgetown University Medical Centre,Washington D.C.,District of Columbia,20037,United States,,38.89511,-77.03637
NCT05537766,Study of Brexucabtagene Autoleucel in Adults With Rare B-cell Malignancies,TERMINATED,University of Iowa,Iowa City,Iowa,52242,United States,,41.66113,-91.53017
NCT05537766,Study of Brexucabtagene Autoleucel in Adults With Rare B-cell Malignancies,TERMINATED,Washington University School of Medicine,St Louis,Missouri,63110,United States,,38.62727,-90.19789
NCT05537766,Study of Brexucabtagene Autoleucel in Adults With Rare B-cell Malignancies,TERMINATED,Hackensack University Medical Center,Hackensack,New Jersey,07601,United States,,40.88593,-74.04347
NCT05537766,Study of Brexucabtagene Autoleucel in Adults With Rare B-cell Malignancies,TERMINATED,The Ohio State University Wexner Medical Center - James Cancer HospitalS,Columbus,Ohio,43210,United States,,39.96118,-82.99879
NCT05537766,Study of Brexucabtagene Autoleucel in Adults With Rare B-cell Malignancies,TERMINATED,UPMC Hillman Cancer Center,Pittsburgh,Pennsylvania,15232,United States,,40.44062,-79.99589
NCT05537766,Study of Brexucabtagene Autoleucel in Adults With Rare B-cell Malignancies,TERMINATED,"Tennessee Oncology, PLLC",Nashville,Tennessee,37203,United States,,36.16589,-86.78444
NCT05537766,Study of Brexucabtagene Autoleucel in Adults With Rare B-cell Malignancies,TERMINATED,Vanderbilt University,Nashville,Tennessee,37232,United States,,36.16589,-86.78444
NCT05537766,Study of Brexucabtagene Autoleucel in Adults With Rare B-cell Malignancies,TERMINATED,MD Anderson Cancer Center,Houston,Texas,77030,United States,,29.76328,-95.36327
NCT05537766,Study of Brexucabtagene Autoleucel in Adults With Rare B-cell Malignancies,TERMINATED,"Medical University of Vienna, Department of Internal Medicine I, Div. of Hematology",Vienna,,01090,Austria,,48.20849,16.37208
NCT05537766,Study of Brexucabtagene Autoleucel in Adults With Rare B-cell Malignancies,TERMINATED,Hopital de la Pitie Salpetriere,Paris,,75013,France,,48.85341,2.3488
NCT05537766,Study of Brexucabtagene Autoleucel in Adults With Rare B-cell Malignancies,TERMINATED,Centre hospitalier de Toulouse - Hematology department,Toulouse,,31059,France,,43.60426,1.44367
NCT05537766,Study of Brexucabtagene Autoleucel in Adults With Rare B-cell Malignancies,TERMINATED,Universitatsklinikum Koln,Cologne,,50937,Germany,,50.93333,6.95
NCT05537766,Study of Brexucabtagene Autoleucel in Adults With Rare B-cell Malignancies,TERMINATED,Universitatsklinikum Heidelberg,Heidelberg,,69120,Germany,,49.40768,8.69079
NCT05537766,Study of Brexucabtagene Autoleucel in Adults With Rare B-cell Malignancies,TERMINATED,Universitatsklinikum Ulm,Ulm,,89081,Germany,,48.39841,9.99155
NCT05537766,Study of Brexucabtagene Autoleucel in Adults With Rare B-cell Malignancies,TERMINATED,IRCCS Azienda Ospedaliero - Universitaria di Bologna,Bologna,,40138,Italy,,44.49381,11.33875
NCT05537766,Study of Brexucabtagene Autoleucel in Adults With Rare B-cell Malignancies,TERMINATED,ASST Grande Ospedale Metropolitano Niguarda,Milan,,20162,Italy,,42.78235,12.59836
NCT05537766,Study of Brexucabtagene Autoleucel in Adults With Rare B-cell Malignancies,TERMINATED,Azienda Ospedale di Perugia - Ospedale S. Maria della Misericordia,Perugia,,06132,Italy,,43.1122,12.38878
NCT05537766,Study of Brexucabtagene Autoleucel in Adults With Rare B-cell Malignancies,TERMINATED,Radboud University Nijmegen Medical Centre,Nijmegen,,6525 GA,Netherlands,,51.8425,5.85278
NCT05537766,Study of Brexucabtagene Autoleucel in Adults With Rare B-cell Malignancies,TERMINATED,Hospital Clinic de Barcelona,Barcelona,,08036,Spain,,41.38879,2.15899
NCT05537766,Study of Brexucabtagene Autoleucel in Adults With Rare B-cell Malignancies,TERMINATED,Hospital Universitario de Salamanca,Salamanca,,37007,Spain,,40.96882,-5.66388
NCT05537766,Study of Brexucabtagene Autoleucel in Adults With Rare B-cell Malignancies,TERMINATED,Hospital Universitario Virgen del Rocio,Seville,,41013,Spain,,37.38283,-5.97317
NCT05537766,Study of Brexucabtagene Autoleucel in Adults With Rare B-cell Malignancies,TERMINATED,Istituto Oncologico Della Svizzera Italiana (IOSI),Bellinzona,,6500,Switzerland,,46.19278,9.01703
NCT07386002,The GLIOMAX Study: MT027 Allogeneic CAR-T for Recurrent Glioma,NOT_YET_RECRUITING,The Johns Hopkins Sidney Kimmel Cancer Center,Baltimore,Maryland,21287,United States,,39.29038,-76.61219
NCT07386002,The GLIOMAX Study: MT027 Allogeneic CAR-T for Recurrent Glioma,NOT_YET_RECRUITING,Hualien Tzu Chi Hospital,Hualien City,,970473,Taiwan,,23.97694,121.60444
NCT07386002,The GLIOMAX Study: MT027 Allogeneic CAR-T for Recurrent Glioma,NOT_YET_RECRUITING,"Chang Gung Memorial Hospital, Kaohsiung",Kaohsiung City,,833401,Taiwan,,22.61626,120.31333
NCT07386002,The GLIOMAX Study: MT027 Allogeneic CAR-T for Recurrent Glioma,NOT_YET_RECRUITING,"Chang Gung Memorial Hospital, Linkou",Taoyuan District,,333423,Taiwan,,24.9896,121.3187
NCT03101709,The Safety and Efficacy of CART-19 Cells in Relapse and Refractory Patients With CD19+ B-cell Lymphoma,UNKNOWN,Henan Cancer Hospital,Zhengzhou,Henan,,China,RECRUITING,34.75778,113.64861
NCT06056921,Safety and Efficacy of CD19 Targeted CAR-T Therapy for Refractory Autoimmune Disease,RECRUITING,Shanxi Bethune Hospital,Taiyuan,Shanxi,,China,RECRUITING,37.86944,112.56028
NCT04653649,CAR T-cells Against CD30 (HSP-CAR30) for Relapsed/ Refractory Hodgkin and T-cell Lymphoma.,UNKNOWN,Hospital Santa Creu i Sant Pau,Barcelona,,08041,Spain,RECRUITING,41.38879,2.15899
NCT06586658,Anti-CD70-CAR-T Cell Injection for the Treatment of Locally Advanced or Relapsed/Metastatic CD70+ Inoperable Renal Cells,RECRUITING,Changzheng hospital,Shanghai,Shanghai Municipality,201109,China,RECRUITING,31.22222,121.45806
NCT04287309,CAR-T Cellular Therapy for B Cell Malignancies Involved in CNS,UNKNOWN,The First Hospital of Zhejiang Medical Colleage Zhejiang University,Hangzhou,Zhejiang,310000,China,RECRUITING,30.29365,120.16142
NCT04287309,CAR-T Cellular Therapy for B Cell Malignancies Involved in CNS,UNKNOWN,"the First Affiliated Hospital,School of Medicine, Zhejiang University",Hangzhou,Zhejiang,310003,China,RECRUITING,30.29365,120.16142
NCT03931421,B Cell Maturation Antigen（BMCA）-Targeted CAR-T for Refractory/Relapsed Multiple Myeloma,UNKNOWN,The first affiliated hospital of Zhejiang University,Hangzhou,Zhejiang,310000,China,RECRUITING,30.29365,120.16142
NCT06996132,Bispecific Antibody-Based Salvage Therapy Followed by CAR-T ± ASCT in R/R Aggressive B-Cell Lymphoma,RECRUITING,Institute of Hematology & Blood Diseases Hospital,Tianjin,,022,China,RECRUITING,39.14222,117.17667
NCT02772198,T-cells Expressing Anti-CD19 CAR in Pediatric and Young Adults With B-cell Malignancies,UNKNOWN,Chaim Sheba Medical Center,Ramat Gan,,,Israel,RECRUITING,32.08227,34.81065
NCT06799247,"Investigating an mRNA CAR T-cell Therapy, Known as Descartes-08, as a Potential Approach to Treat Myasthenia Gravis",RECRUITING,A40,Tucson,Arizona,85718,United States,RECRUITING,32.22174,-110.92648
NCT06799247,"Investigating an mRNA CAR T-cell Therapy, Known as Descartes-08, as a Potential Approach to Treat Myasthenia Gravis",RECRUITING,A13,Carlsbad,California,92011,United States,RECRUITING,33.15809,-117.35059
NCT06799247,"Investigating an mRNA CAR T-cell Therapy, Known as Descartes-08, as a Potential Approach to Treat Myasthenia Gravis",RECRUITING,A46,Los Angeles,California,90095,United States,RECRUITING,34.05223,-118.24368
NCT06799247,"Investigating an mRNA CAR T-cell Therapy, Known as Descartes-08, as a Potential Approach to Treat Myasthenia Gravis",RECRUITING,A14,Orange,California,92868,United States,RECRUITING,33.78779,-117.85311
NCT06799247,"Investigating an mRNA CAR T-cell Therapy, Known as Descartes-08, as a Potential Approach to Treat Myasthenia Gravis",RECRUITING,A21,Aurora,Colorado,80045,United States,RECRUITING,39.72943,-104.83192
NCT06799247,"Investigating an mRNA CAR T-cell Therapy, Known as Descartes-08, as a Potential Approach to Treat Myasthenia Gravis",RECRUITING,A50,Washington D.C.,District of Columbia,20007,United States,RECRUITING,38.89511,-77.03637
NCT06799247,"Investigating an mRNA CAR T-cell Therapy, Known as Descartes-08, as a Potential Approach to Treat Myasthenia Gravis",RECRUITING,A48,Maitland,Florida,32751,United States,RECRUITING,28.62778,-81.36312
NCT06799247,"Investigating an mRNA CAR T-cell Therapy, Known as Descartes-08, as a Potential Approach to Treat Myasthenia Gravis",RECRUITING,A10,Tampa,Florida,33612,United States,RECRUITING,27.94752,-82.45843
NCT06799247,"Investigating an mRNA CAR T-cell Therapy, Known as Descartes-08, as a Potential Approach to Treat Myasthenia Gravis",RECRUITING,A53,O'Fallon,Illinois,62269,United States,RECRUITING,38.59227,-89.91121
NCT06799247,"Investigating an mRNA CAR T-cell Therapy, Known as Descartes-08, as a Potential Approach to Treat Myasthenia Gravis",RECRUITING,A20,Fairway,Kansas,66205,United States,RECRUITING,39.02223,-94.6319
NCT06799247,"Investigating an mRNA CAR T-cell Therapy, Known as Descartes-08, as a Potential Approach to Treat Myasthenia Gravis",RECRUITING,A16,Lexington,Kentucky,40536,United States,RECRUITING,37.98869,-84.47772
NCT06799247,"Investigating an mRNA CAR T-cell Therapy, Known as Descartes-08, as a Potential Approach to Treat Myasthenia Gravis",RECRUITING,A38,Boston,Massachusetts,02111,United States,RECRUITING,42.35843,-71.05977
NCT06799247,"Investigating an mRNA CAR T-cell Therapy, Known as Descartes-08, as a Potential Approach to Treat Myasthenia Gravis",RECRUITING,A12,Amherst,New York,14226,United States,RECRUITING,42.97839,-78.79976
NCT06799247,"Investigating an mRNA CAR T-cell Therapy, Known as Descartes-08, as a Potential Approach to Treat Myasthenia Gravis",RECRUITING,A52,New York,New York,10027,United States,RECRUITING,40.71427,-74.00597
NCT06799247,"Investigating an mRNA CAR T-cell Therapy, Known as Descartes-08, as a Potential Approach to Treat Myasthenia Gravis",RECRUITING,A47,New York,New York,10065,United States,RECRUITING,40.71427,-74.00597
NCT06799247,"Investigating an mRNA CAR T-cell Therapy, Known as Descartes-08, as a Potential Approach to Treat Myasthenia Gravis",RECRUITING,A22,Chapel Hill,North Carolina,27599,United States,RECRUITING,35.9132,-79.05584
NCT06799247,"Investigating an mRNA CAR T-cell Therapy, Known as Descartes-08, as a Potential Approach to Treat Myasthenia Gravis",RECRUITING,A39,Charlotte,North Carolina,28204,United States,RECRUITING,35.22709,-80.84313
NCT06799247,"Investigating an mRNA CAR T-cell Therapy, Known as Descartes-08, as a Potential Approach to Treat Myasthenia Gravis",RECRUITING,A15,Portland,Oregon,97239,United States,RECRUITING,45.52345,-122.67621
NCT06799247,"Investigating an mRNA CAR T-cell Therapy, Known as Descartes-08, as a Potential Approach to Treat Myasthenia Gravis",RECRUITING,A11,Philadelphia,Pennsylvania,19104,United States,RECRUITING,39.95238,-75.16362
NCT06799247,"Investigating an mRNA CAR T-cell Therapy, Known as Descartes-08, as a Potential Approach to Treat Myasthenia Gravis",RECRUITING,A49,Pittsburgh,Pennsylvania,15213,United States,RECRUITING,40.44062,-79.99589
NCT06799247,"Investigating an mRNA CAR T-cell Therapy, Known as Descartes-08, as a Potential Approach to Treat Myasthenia Gravis",RECRUITING,A43,Houston,Texas,77030,United States,RECRUITING,29.76328,-95.36327
NCT06799247,"Investigating an mRNA CAR T-cell Therapy, Known as Descartes-08, as a Potential Approach to Treat Myasthenia Gravis",RECRUITING,A41,Seattle,Washington,98195,United States,RECRUITING,47.60621,-122.33207
NCT06799247,"Investigating an mRNA CAR T-cell Therapy, Known as Descartes-08, as a Potential Approach to Treat Myasthenia Gravis",RECRUITING,A54,Milwaukee,Wisconsin,53215,United States,RECRUITING,43.0389,-87.90647
NCT06799247,"Investigating an mRNA CAR T-cell Therapy, Known as Descartes-08, as a Potential Approach to Treat Myasthenia Gravis",RECRUITING,A18,Toronto,,,Canada,RECRUITING,43.70643,-79.39864
NCT06799247,"Investigating an mRNA CAR T-cell Therapy, Known as Descartes-08, as a Potential Approach to Treat Myasthenia Gravis",RECRUITING,A23,Rome,,,Italy,RECRUITING,41.89193,12.51133
NCT06799247,"Investigating an mRNA CAR T-cell Therapy, Known as Descartes-08, as a Potential Approach to Treat Myasthenia Gravis",RECRUITING,A30,Krakow,,,Poland,RECRUITING,50.06143,19.93658
NCT06799247,"Investigating an mRNA CAR T-cell Therapy, Known as Descartes-08, as a Potential Approach to Treat Myasthenia Gravis",RECRUITING,A24,Belgrade,,,Serbia,RECRUITING,44.80401,20.46513
NCT06799247,"Investigating an mRNA CAR T-cell Therapy, Known as Descartes-08, as a Potential Approach to Treat Myasthenia Gravis",RECRUITING,A25,Barcelona,,,Spain,RECRUITING,41.38879,2.15899
NCT06799247,"Investigating an mRNA CAR T-cell Therapy, Known as Descartes-08, as a Potential Approach to Treat Myasthenia Gravis",RECRUITING,A26,Barcelona,,,Spain,RECRUITING,41.38879,2.15899
NCT06799247,"Investigating an mRNA CAR T-cell Therapy, Known as Descartes-08, as a Potential Approach to Treat Myasthenia Gravis",RECRUITING,A31,Madrid,,,Spain,RECRUITING,40.4165,-3.70256
NCT06799247,"Investigating an mRNA CAR T-cell Therapy, Known as Descartes-08, as a Potential Approach to Treat Myasthenia Gravis",RECRUITING,A32,Ankara,,,Turkey (Türkiye),RECRUITING,39.91987,32.85427
NCT06799247,"Investigating an mRNA CAR T-cell Therapy, Known as Descartes-08, as a Potential Approach to Treat Myasthenia Gravis",RECRUITING,A17,Istanbul,,,Turkey (Türkiye),RECRUITING,41.01384,28.94966
NCT06799247,"Investigating an mRNA CAR T-cell Therapy, Known as Descartes-08, as a Potential Approach to Treat Myasthenia Gravis",RECRUITING,A33,Birmingham,,,United Kingdom,RECRUITING,52.48142,-1.89983
NCT06799247,"Investigating an mRNA CAR T-cell Therapy, Known as Descartes-08, as a Potential Approach to Treat Myasthenia Gravis",RECRUITING,A51,Sheffield,,,United Kingdom,RECRUITING,53.38297,-1.4659
NCT02640209,Pilot Trial Of Autologous T Cells Engineered To Express Anti-CD19 Chimeric Antigen Receptor (CART19)In Combination With Ibrutinib In Patients With Relapsed Or Refractory CD19+ Chronic Lymphocytic Leukemia (CLL)Or Small Lymphocytic Lymphoma (SLL),TERMINATED,Abramson Cancer Center of the University of Pennsylvania,Philadelphia,Pennsylvania,19104,United States,,39.95238,-75.16362
NCT04283006,A Study of CD20/CD22 Targeted CAR T-cell Therapy for Relapsed or Refractory Lymphoid Malignancies,RECRUITING,The First Hospital of Zhejiang Medical Colleage Zhejiang University,Hangzhou,Zhejiang,310003,China,RECRUITING,30.29365,120.16142
NCT03919240,CAR-T Cell Therapy Targeting to CD19 for R/R ALL,RECRUITING,The Fisrt Affiliated Hospital of Soochow University,Suzhou,Jiangsu,215006,China,RECRUITING,31.30408,120.59538
NCT06497387,Safety and Efficacy of PRG-1801 for Refractory Lupus Nephritis and IgG4-Related Disease,RECRUITING,Tongji Hospital,Wuhan,Hubei,430030,China,RECRUITING,30.58333,114.26667
NCT04848493,"National Project on Vaccines, COVID-19 and Frail Patients",COMPLETED,IRCCS Istituto Tumori Giovanni Paolo II,Bari,Bari,,Italy,,41.12066,16.86982
NCT04848493,"National Project on Vaccines, COVID-19 and Frail Patients",COMPLETED,IRCCS Azienda Ospedaliera Universitaria,Bologna,Bologhna,,Italy,,44.49381,11.33875
NCT04848493,"National Project on Vaccines, COVID-19 and Frail Patients",COMPLETED,Ospedale Policlinico San Martino IRCCS,Genova,Genova,,Italy,,45.21604,11.87211
NCT04848493,"National Project on Vaccines, COVID-19 and Frail Patients",COMPLETED,Foindazione IRCCS Istituto Neurologico Carlo Besta,Milan,Milano,,Italy,,42.78235,12.59836
NCT04848493,"National Project on Vaccines, COVID-19 and Frail Patients",COMPLETED,Fondazione IRCCS Istituto Nazionale dei Tumori,Milan,Milano,,Italy,,42.78235,12.59836
NCT04848493,"National Project on Vaccines, COVID-19 and Frail Patients",COMPLETED,IRCCS Istituto Clinico Humanitas,Milan,Milano,,Italy,,42.78235,12.59836
NCT04848493,"National Project on Vaccines, COVID-19 and Frail Patients",COMPLETED,IRCCS Ospedale San Raffaele,Milan,Milano,,Italy,,42.78235,12.59836
NCT04848493,"National Project on Vaccines, COVID-19 and Frail Patients",COMPLETED,Fondazione IRCCS Policlinico San Matteo,Pavia,Pavia,,Italy,,45.19205,9.15917
NCT04848493,"National Project on Vaccines, COVID-19 and Frail Patients",COMPLETED,Azienda USL IRCCS di Reggio Emilia,Reggio Emilia,Reggio Emilia,42123,Italy,,44.69825,10.63125
NCT04848493,"National Project on Vaccines, COVID-19 and Frail Patients",COMPLETED,IRCCS Istituto Nazionale Tumori Regina Elena,Roma,Roma,,Italy,,44.99364,11.10642
NCT04848493,"National Project on Vaccines, COVID-19 and Frail Patients",COMPLETED,IRCCS Istituto per le Malattie Infettive Lazzaro Spallanzani,Roma,Roma,,Italy,,44.99364,11.10642
NCT04848493,"National Project on Vaccines, COVID-19 and Frail Patients",COMPLETED,Istituto Dermatologico San Gallicano,Roma,Roma,,Italy,,44.99364,11.10642
NCT02311621,Engineered Neuroblastoma Cellular Immunotherapy (ENCIT)-01,ACTIVE_NOT_RECRUITING,Seattle Children's Hospital,Seattle,Washington,98105,United States,,47.60621,-122.33207
NCT04670055,A Study of Humanized BCMA-targeted CAR-T Cells Therapy for Refractory/Relapsed Multiple Myeloma,NOT_YET_RECRUITING,"The First Affiliated Hospital, Medical College, Zhejiang University",Hangzhou,Zhejiang,310003,China,,30.29365,120.16142
NCT05765006,CD19-CART(Relma-cel) for Moderate to Severe Active Systemic Lupus Erythematosus,UNKNOWN,Relma-cel Medical,Shanghai,,,China,RECRUITING,31.22222,121.45806
NCT02935153,A Clinical Research of CD22-Targeted CAR-T in B Cell Malignancies,UNKNOWN,Southwest Hospital of Third Millitary Medical University,Chongqing,Chongqing Municipality,400000,China,RECRUITING,29.56026,106.55771
NCT05513612,Novel CAR-T Cell Therapy in the Treatment of Hematopoietic and Lymphoid Malignancies,WITHDRAWN,"Shanghai Pudong Hospital, Fudan University Affiliated Pudong Medical Center",Shanghai,Shanghai Municipality,201399,China,,31.22222,121.45806
NCT05353530,IL-8 Receptor-modified CD70 CAR T Cell Therapy in CD70+ Adult Glioblastoma,ACTIVE_NOT_RECRUITING,University of Florida Health,Gainesville,Florida,32608,United States,,29.65163,-82.32483
NCT05105152,PLAT-08: A Study Of SC-DARIC33 CAR T Cells In Pediatric And Young Adults With Relapsed Or Refractory CD33+ AML,RECRUITING,Seattle Children's Hospital,Seattle,Washington,98105,United States,RECRUITING,47.60621,-122.33207
NCT06680752,Clinical Study of ARD103 CAR-T Therapy for Patients With R/R AML or MDS,RECRUITING,Novant Health Cancer Institute,Charlotte,North Carolina,28204,United States,RECRUITING,35.22709,-80.84313
NCT06680752,Clinical Study of ARD103 CAR-T Therapy for Patients With R/R AML or MDS,RECRUITING,Novant Health Cancer Institute,Winston-Salem,North Carolina,27201,United States,RECRUITING,36.09986,-80.24422
NCT06680752,Clinical Study of ARD103 CAR-T Therapy for Patients With R/R AML or MDS,RECRUITING,MD Anderson Cancer Center,Houston,Texas,77030,United States,RECRUITING,29.76328,-95.36327
NCT03814447,The Fourth Generation CART-cell Therapy for Refractory-Relapsed Ovarian Cancer,UNKNOWN,Shanghai 6th People's Hospital,Shanghai,Shanghai Municipality,,China,RECRUITING,31.22222,121.45806
NCT07071909,Immune Reconstitution Monitoring and Pneumococcal Vaccination in Patients Treated With CAR-T Cells,WITHDRAWN,Lineberger Comprehensive Cancer Center,Chapel Hill,North Carolina,27599,United States,,35.9132,-79.05584
NCT06364852,An Evaluation of LY007 Cell Injection for r/r B-NHL,RECRUITING,Ruijin hospital,Shanghai,,,China,RECRUITING,31.22222,121.45806
NCT03393936,Safety and Efficacy of CCT301 CAR-T in Adult Subjects With Recurrent or Refractory Stage IV Renal Cell Carcinoma,TERMINATED,Shanghai Public Health Clinical Center,Shanghai,Shanghai Municipality,200000,China,,31.22222,121.45806
NCT06191887,B-Cell Activating Factor Receptor (BAFFR)-Based Chimeric Antigen Receptor T-Cells With Fludarabine and Cyclophosphamide Lymphodepletion for the Treatment of Relapsed or Refractory B-cell Hematologic Malignancies,RECRUITING,Mayo Clinic in Florida,Jacksonville,Florida,32224-9980,United States,RECRUITING,30.33218,-81.65565
NCT06048250,Mezigdomide (CC-92480) Post Idecabtagene Vicleucel in Treating Patients With Relapsed Multiple Myeloma,RECRUITING,City of Hope Medical Center,Duarte,California,91010,United States,RECRUITING,34.13945,-117.97729
NCT04747093,Induced-T Cell Like NK Cells for B Cell Malignancies,UNKNOWN,"Department of Hematology,Nanfang Hospital, Southern Medical University",Guangzhou,Guangdong,510515,China,RECRUITING,23.11667,113.25
NCT02792114,T-Cell Therapy for Advanced Breast Cancer,ACTIVE_NOT_RECRUITING,Memorial Sloan Kettering Cancer Center (Consent and follow-up only),Basking Ridge,New Jersey,,United States,,40.70621,-74.54932
NCT02792114,T-Cell Therapy for Advanced Breast Cancer,ACTIVE_NOT_RECRUITING,Memorial Sloan Kettering Monmouth (Consent and follow-up only),Middletown,New Jersey,07748,United States,,40.39428,-74.11709
NCT02792114,T-Cell Therapy for Advanced Breast Cancer,ACTIVE_NOT_RECRUITING,Memorial Sloan Kettering Bergen (Consent and follow-up only),Montvale,New Jersey,07645,United States,,41.04676,-74.02292
NCT02792114,T-Cell Therapy for Advanced Breast Cancer,ACTIVE_NOT_RECRUITING,Memorial Sloan Kettering Cancer Center at Commack (Consent and follow-up only),Commack,New York,,United States,,40.84288,-73.29289
NCT02792114,T-Cell Therapy for Advanced Breast Cancer,ACTIVE_NOT_RECRUITING,Memorial Sloan Kettering Westchester (Consent and follow-up only),East White Plains,New York,10604,United States,,41.03899,-73.74763
NCT02792114,T-Cell Therapy for Advanced Breast Cancer,ACTIVE_NOT_RECRUITING,Memorial Sloan Kettering Cancer Center,New York,New York,10065,United States,,40.71427,-74.00597
NCT02792114,T-Cell Therapy for Advanced Breast Cancer,ACTIVE_NOT_RECRUITING,Memorial Sloan Kettering Nassau (Consent and Follow-Up only),Uniondale,New York,11553,United States,,40.70038,-73.59291
NCT03464916,Study to Evaluate the Safety and Efficacy of Anti-CD38 CAR-T in Relapsed or Refractory Multiple Myeloma Patients,COMPLETED,Mayo Clinic Florida,Jacksonville,Florida,32224,United States,,30.33218,-81.65565
NCT03464916,Study to Evaluate the Safety and Efficacy of Anti-CD38 CAR-T in Relapsed or Refractory Multiple Myeloma Patients,COMPLETED,Mayo Clinic Minnesota,Rochester,Minnesota,55905,United States,,44.02163,-92.4699
NCT03464916,Study to Evaluate the Safety and Efficacy of Anti-CD38 CAR-T in Relapsed or Refractory Multiple Myeloma Patients,COMPLETED,Icahn School of Medicine,New York,New York,10029,United States,,40.71427,-74.00597
NCT03464916,Study to Evaluate the Safety and Efficacy of Anti-CD38 CAR-T in Relapsed or Refractory Multiple Myeloma Patients,COMPLETED,"University of Pennsylvania, Abramson Cancer Center",Philadelphia,Pennsylvania,19104,United States,,39.95238,-75.16362
NCT06912152,MT027 in Patients With Advanced Peritoneal Malignancies or Abdominal Metastatic Solid Tumors,RECRUITING,The First Affiliated Hospital Zhejiang University School of Medicine,Hangzhou,Zhejiang,,China,RECRUITING,30.29365,120.16142
NCT06782425,Treating Claudin18.2-positive Advanced Solid Tumors with XKDCT225(Targeting Claudin18.2-CAR-T),RECRUITING,AnYang Tumor Hospital,Anyang,Henan,455000,China,RECRUITING,36.096,114.38278
NCT07153068,SupCD7 CART for Relapsed or Refractory CD7 Positive Hematologic Malignancies,RECRUITING,Institute of Hematology & Blood Diseases Hospital,Tianjin,Tianjin Municipality,,China,RECRUITING,39.14222,117.17667
NCT02644655,Immunotherapy Using Autologous T Cell-Engineered With CD19-specific Chimeric Antigen Receptor for the Treatment of Recurrent /Refractory B Cell Leukemia,UNKNOWN,Eastern Hepatobiliary Surgery Hospital,Shanghai,,200438,China,RECRUITING,31.22222,121.45806
NCT04762485,Humanized CD7 CAR T-cell Therapy for r/r CD7+ Acute Leukemia,UNKNOWN,The First Affiliated Hospital of Soochow University,Suzhou,(Select),215000,China,RECRUITING,31.30408,120.59538
NCT06180174,Clinical Research of CD19 Targeted CAR-T Cell in Relapsed/Refractory B Cell Lymphoma,RECRUITING,Beijing Cancer Hospital,Beijing,Beijing Municipality,,China,RECRUITING,39.9075,116.39723
NCT06689917,JY231(JY231) Injection for the Treatment of Relapsed or Refractory B Cell Lymphoma/ Leukemia,RECRUITING,"Tongji Hospital, Tongji Medical College, Huazhong University of Science and Technology, China",Wuhan,Hubei,,China,RECRUITING,30.58333,114.26667
NCT05117138,Safety and Efficacy of Chimeric Antigen Receptor T Lymphocytes for Patients With Intermediate and Advanced Tumors,UNKNOWN,The First Affiliated Hospital of Zhengzhou University,Beijing,Beijing Municipality,450052,China,,39.9075,116.39723
NCT04938115,Cell Therapy for CD7 Positive Acute Myeloid Leukemia or Mixed Lineage Leukemia,COMPLETED,He bei Yan da Lu dao pei Hospital,Beijingcun,Hebei,,China,,41.26103,119.10946
NCT05410717,CLDN6/GPC3/Mesothelin/AXL-CAR-NK Cell Therapy for Advanced Solid Tumors,RECRUITING,The Second Affiliated Hospital of Guangzhou Medical University,Guangzhou,Guangdong,,China,RECRUITING,23.11667,113.25
NCT06882317,Long Term Follow-up Study for Subjects Administered CLBR001,ENROLLING_BY_INVITATION,Indiana University Melvin and Bren Simon Comprehensive Cancer Center,Indianapolis,Indiana,46202,United States,,39.76838,-86.15804
NCT06882317,Long Term Follow-up Study for Subjects Administered CLBR001,ENROLLING_BY_INVITATION,Virtual Research Group- Premier Research,Morrisville,North Carolina,27560,United States,,35.82348,-78.82556
NCT06882317,Long Term Follow-up Study for Subjects Administered CLBR001,ENROLLING_BY_INVITATION,University of Virginia,Charlottesville,Virginia,22908,United States,,38.02931,-78.47668
NCT06052826,"Geriatric Assessment Guided Interventions to Accelerate Functional Recovery After CAR-T Therapy for Patients 60 Years and Older With B-cell Non-Hodgkin Lymphoma or Multiple Myeloma, GOCART Study",RECRUITING,City of Hope Medical Center,Duarte,California,91010,United States,RECRUITING,34.13945,-117.97729
NCT07051525,Early Versus Late Stopping of Antibiotics in Adults With High-risk Hematological Malignancies/Receiving Cellular Therapies and Fever,RECRUITING,Peter MacCallum Cancer Centre,Melbourne,Victoria,3000,Australia,RECRUITING,-37.814,144.96332
NCT07051525,Early Versus Late Stopping of Antibiotics in Adults With High-risk Hematological Malignancies/Receiving Cellular Therapies and Fever,RECRUITING,Royal Melbourne Hospital,Melbourne,Victoria,3050,Australia,RECRUITING,-37.814,144.96332
NCT03721068,Study of CAR T-Cells Targeting the GD2 With IL-15+iCaspase9 for Relapsed/Refractory Neuroblastoma or Relapsed/Refractory Osteosarcoma,RECRUITING,Emory - Winship Cancer Institute,Atlanta,Georgia,30322,United States,WITHDRAWN,33.749,-84.38798
NCT03721068,Study of CAR T-Cells Targeting the GD2 With IL-15+iCaspase9 for Relapsed/Refractory Neuroblastoma or Relapsed/Refractory Osteosarcoma,RECRUITING,Lineberger Comprehensive Cancer Center at University of North Carolina - Chapel Hill,Chapel Hill,North Carolina,27599-7295,United States,RECRUITING,35.9132,-79.05584
NCT01818323,Phase I Trial: T4 Immunotherapy of Head and Neck Cancer,UNKNOWN,"Clinical Research Facility, Guy's Hospital",London,London,SE1 9RT,United Kingdom,RECRUITING,51.50853,-0.12574
NCT06707259,Clinical Study of Cord Blood-derived IL-10/IL-15 CD19-CAR NK in the Treatment of Refractory/Relapsed B-cell NHL,RECRUITING,"the Second Affiliated Hospital, College of Medicine, Zhejiang University",Hangzhou,Zhejiang,310009,China,RECRUITING,30.29365,120.16142
NCT06985485,Full-Course Immunotherapy Consolidation for Unfit or Fit B-ALL Who Decline Chemotherapy,RECRUITING,The First Affiliated Hospital of Soochow University,Suzhou,Jiangsu,215006,China,RECRUITING,31.30408,120.59538
NCT07042438,Fecal Microbiome Transplant to Remodel Intestinal Microbiota for Patients With Relapsed or Refractory Lymphoma With Exposure to High-Risk Antibiotics Who Are Receiving Chimeric Antigen Receptor T Cells,RECRUITING,City of Hope Medical Center,Duarte,California,91010,United States,RECRUITING,34.13945,-117.97729
NCT06371040,Safety and Efficacy of CD19-BCMA Targeted CAR-T Therapy for Refractory Generalized Myasthenia Gravis,RECRUITING,"Tangdu Hospital, The Fourth Military Medical University",Xi'an,Shaanxi,710038,China,RECRUITING,34.25833,108.92861
NCT06327997,An Exploratory Study by Fast CAR T Cells,RECRUITING,Shanghai Mengchao Cancer Hospital,Shanghai,Shanghai Municipality,,China,RECRUITING,31.22222,121.45806
NCT04897321,B7-H3-Specific Chimeric Antigen Receptor Autologous T-Cell Therapy for Pediatric Patients With Solid Tumors (3CAR),RECRUITING,St. Jude Children's Research Hospital,Memphis,Tennessee,38105,United States,RECRUITING,35.14953,-90.04898
NCT05673447,The Study of Anti-CD19 CAR NK Cells in the Treatment of Relapsed/Refractory Diffuse Large B Cell Lymphoma,UNKNOWN,Changhai Hospital,Shanghai,,,China,RECRUITING,31.22222,121.45806
NCT06503497,A Trail of Second-line Chemotherapy Sequential NKG2D CAR-NK Cell Therapy for Pancreatic Cancer,RECRUITING,the first affiliated hospital of Zhejiang University，school of medicine,Hangzhou,Zhejiang,310009,China,RECRUITING,30.29365,120.16142
NCT04412174,A Study of GC022F CAR-T Cell Immunotherapy for Relapsed or Refractory B- NHL,UNKNOWN,Hebei Yanda Ludaopei Hospital,Sanhe,Hebei,065200,China,,39.98049,117.06887
NCT06176690,Constitutive IL7R (C7R) Modified Banked Allogeneic CD30.CAR EBVSTS for CD30-Positive Lymphomas,RECRUITING,Houston Methodist Hospital,Houston,Texas,77030,United States,RECRUITING,29.76328,-95.36327
NCT06176690,Constitutive IL7R (C7R) Modified Banked Allogeneic CD30.CAR EBVSTS for CD30-Positive Lymphomas,RECRUITING,Texas Children's Hospital,Houston,Texas,77030,United States,NOT_YET_RECRUITING,29.76328,-95.36327
NCT07411599,"Dual Administration Of Intraperitoneal And Intravenous TROP2-Directed CAR-NK With TGF-Beta Receptor 2 (TGFBR2) Knock Out (KO) Therapy For Colorectal Cancer-Related Peritoneal Carcinomatosis: A Phase 1/2 Trial (""Chip-CRC Trial"")",RECRUITING,MD Anderson Cancer Center,Houston,Texas,77030,United States,RECRUITING,29.76328,-95.36327
NCT03361748,Efficacy and Safety Study of bb2121 in Subjects With Relapsed and Refractory Multiple Myeloma,COMPLETED,Local Institution - 108,San Francisco,California,94143,United States,,37.77493,-122.41942
NCT03361748,Efficacy and Safety Study of bb2121 in Subjects With Relapsed and Refractory Multiple Myeloma,COMPLETED,University of California - San Francisco,San Francisco,California,94143,United States,,37.77493,-122.41942
NCT03361748,Efficacy and Safety Study of bb2121 in Subjects With Relapsed and Refractory Multiple Myeloma,COMPLETED,Emory University,Atlanta,Georgia,30322,United States,,33.749,-84.38798
NCT03361748,Efficacy and Safety Study of bb2121 in Subjects With Relapsed and Refractory Multiple Myeloma,COMPLETED,Local Institution - 103,Atlanta,Georgia,30322,United States,,33.749,-84.38798
NCT03361748,Efficacy and Safety Study of bb2121 in Subjects With Relapsed and Refractory Multiple Myeloma,COMPLETED,Local Institution - 107,Boston,Massachusetts,02114,United States,,42.35843,-71.05977
NCT03361748,Efficacy and Safety Study of bb2121 in Subjects With Relapsed and Refractory Multiple Myeloma,COMPLETED,Dana Farber Cancer Institute,Boston,Massachusetts,02115,United States,,42.35843,-71.05977
NCT03361748,Efficacy and Safety Study of bb2121 in Subjects With Relapsed and Refractory Multiple Myeloma,COMPLETED,Massachusetts General Hospital,Boston,Massachusetts,02214,United States,,42.35843,-71.05977
NCT03361748,Efficacy and Safety Study of bb2121 in Subjects With Relapsed and Refractory Multiple Myeloma,COMPLETED,Local Institution - 106,Boston,Massachusetts,02215,United States,,42.35843,-71.05977
NCT03361748,Efficacy and Safety Study of bb2121 in Subjects With Relapsed and Refractory Multiple Myeloma,COMPLETED,Local Institution - 105,Rochester,Minnesota,55905,United States,,44.02163,-92.4699
NCT03361748,Efficacy and Safety Study of bb2121 in Subjects With Relapsed and Refractory Multiple Myeloma,COMPLETED,Mayo Clinic,Rochester,Minnesota,55905,United States,,44.02163,-92.4699
NCT03361748,Efficacy and Safety Study of bb2121 in Subjects With Relapsed and Refractory Multiple Myeloma,COMPLETED,Hackensack University Medical Center,Hackensack,New Jersey,07601,United States,,40.88593,-74.04347
NCT03361748,Efficacy and Safety Study of bb2121 in Subjects With Relapsed and Refractory Multiple Myeloma,COMPLETED,Local Institution - 102,Hackensack,New Jersey,07601,United States,,40.88593,-74.04347
NCT03361748,Efficacy and Safety Study of bb2121 in Subjects With Relapsed and Refractory Multiple Myeloma,COMPLETED,Local Institution - 109,New York,New York,10029,United States,,40.71427,-74.00597
NCT03361748,Efficacy and Safety Study of bb2121 in Subjects With Relapsed and Refractory Multiple Myeloma,COMPLETED,Mt. Sinai Medical Center,New York,New York,10029,United States,,40.71427,-74.00597
NCT03361748,Efficacy and Safety Study of bb2121 in Subjects With Relapsed and Refractory Multiple Myeloma,COMPLETED,Local Institution - 101,Nashville,Tennessee,37203,United States,,36.16589,-86.78444
NCT03361748,Efficacy and Safety Study of bb2121 in Subjects With Relapsed and Refractory Multiple Myeloma,COMPLETED,Sarah Cannon Research Institute,Nashville,Tennessee,37203,United States,,36.16589,-86.78444
NCT03361748,Efficacy and Safety Study of bb2121 in Subjects With Relapsed and Refractory Multiple Myeloma,COMPLETED,Local Institution - 104,Dallas,Texas,75390,United States,,32.78306,-96.80667
NCT03361748,Efficacy and Safety Study of bb2121 in Subjects With Relapsed and Refractory Multiple Myeloma,COMPLETED,University of Texas Southwestern Medical Center,Dallas,Texas,75390,United States,,32.78306,-96.80667
NCT03361748,Efficacy and Safety Study of bb2121 in Subjects With Relapsed and Refractory Multiple Myeloma,COMPLETED,Universitaire Ziekenhuizen Leuven,Leuven,Flemish Brabant,3000,Belgium,,50.87959,4.70093
NCT03361748,Efficacy and Safety Study of bb2121 in Subjects With Relapsed and Refractory Multiple Myeloma,COMPLETED,Local Institution - 201,Leuven,,B-3000,Belgium,,50.87959,4.70093
NCT03361748,Efficacy and Safety Study of bb2121 in Subjects With Relapsed and Refractory Multiple Myeloma,COMPLETED,Local Institution - 301,Toronto,Ontario,M5G 2M9,Canada,,43.70643,-79.39864
NCT03361748,Efficacy and Safety Study of bb2121 in Subjects With Relapsed and Refractory Multiple Myeloma,COMPLETED,Princess Margaret Cancer Centre,Toronto,,M5G 2M9,Canada,,43.70643,-79.39864
NCT03361748,Efficacy and Safety Study of bb2121 in Subjects With Relapsed and Refractory Multiple Myeloma,COMPLETED,Centre Hospitalier Regional Universitaire de Lille-Hopital Calude Huriez Service des Maladies du Sang,Lille,Hauts-de-France,59037,France,,50.63391,3.05512
NCT03361748,Efficacy and Safety Study of bb2121 in Subjects With Relapsed and Refractory Multiple Myeloma,COMPLETED,Centre Hospitalier Universitaire de Nantes - Hotel Dieu,Nantes,Pays de la Loire Region,44093,France,,47.21725,-1.55336
NCT03361748,Efficacy and Safety Study of bb2121 in Subjects With Relapsed and Refractory Multiple Myeloma,COMPLETED,Local Institution - 402,Lille,,59037,France,,50.63391,3.05512
NCT03361748,Efficacy and Safety Study of bb2121 in Subjects With Relapsed and Refractory Multiple Myeloma,COMPLETED,Local Institution - 401,Nantes,,44093,France,,47.21725,-1.55336
NCT03361748,Efficacy and Safety Study of bb2121 in Subjects With Relapsed and Refractory Multiple Myeloma,COMPLETED,"Universitatsklinikum Heidelberg Medizinische Klinik Krehl-Klinik Haematologie, Onkologie, Rheumato",Heidelberg,Baden-Wurttemberg,69120,Germany,,49.40768,8.69079
NCT03361748,Efficacy and Safety Study of bb2121 in Subjects With Relapsed and Refractory Multiple Myeloma,COMPLETED,University of Tübingen,Tübingen,Baden-Wurttemberg,72076,Germany,,48.52266,9.05222
NCT03361748,Efficacy and Safety Study of bb2121 in Subjects With Relapsed and Refractory Multiple Myeloma,COMPLETED,Universitatsklinikum Würzburg,Würzburg,Bavaria,97080,Germany,,49.79391,9.95121
NCT03361748,Efficacy and Safety Study of bb2121 in Subjects With Relapsed and Refractory Multiple Myeloma,COMPLETED,Local Institution - 502,Heidelberg,,69120,Germany,,49.40768,8.69079
NCT03361748,Efficacy and Safety Study of bb2121 in Subjects With Relapsed and Refractory Multiple Myeloma,COMPLETED,Local Institution - 503,Tübingen,,72076,Germany,,48.52266,9.05222
NCT03361748,Efficacy and Safety Study of bb2121 in Subjects With Relapsed and Refractory Multiple Myeloma,COMPLETED,Local Institution - 501,Würzburg,,97080,Germany,,49.79391,9.95121
NCT03361748,Efficacy and Safety Study of bb2121 in Subjects With Relapsed and Refractory Multiple Myeloma,COMPLETED,Azienda Ospedaliero Universitaria Di Bologna Policlinico,Bologna,Emilia-Romagna,40138,Italy,,44.49381,11.33875
NCT03361748,Efficacy and Safety Study of bb2121 in Subjects With Relapsed and Refractory Multiple Myeloma,COMPLETED,Local Institution - 602,Bergamo,,24128,Italy,,45.69601,9.66721
NCT03361748,Efficacy and Safety Study of bb2121 in Subjects With Relapsed and Refractory Multiple Myeloma,COMPLETED,Ospedali Riuniti di Bergamo,Bergamo,,24128,Italy,,45.69601,9.66721
NCT03361748,Efficacy and Safety Study of bb2121 in Subjects With Relapsed and Refractory Multiple Myeloma,COMPLETED,Local Institution - 601,Bologna,,40138,Italy,,44.49381,11.33875
NCT03361748,Efficacy and Safety Study of bb2121 in Subjects With Relapsed and Refractory Multiple Myeloma,COMPLETED,Tokai University Hospital,Isehara,Kanagawa,259-1193,Japan,,35.39932,139.31019
NCT03361748,Efficacy and Safety Study of bb2121 in Subjects With Relapsed and Refractory Multiple Myeloma,COMPLETED,Jichi Medical University Hospital,Shimotsuke,Tochigi,3290498,Japan,,36.41323,139.86622
NCT03361748,Efficacy and Safety Study of bb2121 in Subjects With Relapsed and Refractory Multiple Myeloma,COMPLETED,Japan Red Cross Medical Center,Shibuya-ku,Tokyo,150-8935,Japan,,,
NCT03361748,Efficacy and Safety Study of bb2121 in Subjects With Relapsed and Refractory Multiple Myeloma,COMPLETED,Local Institution - 803,"Isehara City, Kanagawa",,259-1193,Japan,,,
NCT03361748,Efficacy and Safety Study of bb2121 in Subjects With Relapsed and Refractory Multiple Myeloma,COMPLETED,Local Institution - 801,Shibuya-ku,,150-8935,Japan,,,
NCT03361748,Efficacy and Safety Study of bb2121 in Subjects With Relapsed and Refractory Multiple Myeloma,COMPLETED,Local Institution - 802,Shimotsuke,,329-0498,Japan,,36.41323,139.86622
NCT03361748,Efficacy and Safety Study of bb2121 in Subjects With Relapsed and Refractory Multiple Myeloma,COMPLETED,Local Institution - 804,Shinjuku,,162-8666,Japan,,35.69115,139.70854
NCT03361748,Efficacy and Safety Study of bb2121 in Subjects With Relapsed and Refractory Multiple Myeloma,COMPLETED,Tokyo Women's Medical University Hospital,Shinjuku,,162-8666,Japan,,35.69115,139.70854
NCT03361748,Efficacy and Safety Study of bb2121 in Subjects With Relapsed and Refractory Multiple Myeloma,COMPLETED,Hospital Universitari Germans Trias i Pujol Can Ruti,Badalona,Barcelona,08916,Spain,,41.45004,2.24741
NCT03361748,Efficacy and Safety Study of bb2121 in Subjects With Relapsed and Refractory Multiple Myeloma,COMPLETED,Clinica Universidad de Navarra,Pamplona,Navarre,31008,Spain,,42.81687,-1.64323
NCT03361748,Efficacy and Safety Study of bb2121 in Subjects With Relapsed and Refractory Multiple Myeloma,COMPLETED,Local Institution - 702,Badalona (Barcelona),,08916,Spain,,41.45004,2.24741
NCT03361748,Efficacy and Safety Study of bb2121 in Subjects With Relapsed and Refractory Multiple Myeloma,COMPLETED,Local Institution - 701,Pamplona,,31008,Spain,,42.81687,-1.64323
NCT07003555,Dual-target BCMA-CD19 CAR-T Cell Therapy for RR/MM With Extramedullary Infiltration,RECRUITING,Shanghai Liquan Hospital,Shanghai,,,China,RECRUITING,31.22222,121.45806
NCT06642025,EX02 CAR-T Cells for Relapsed and Refractory Acute Myeloid Leukemia,RECRUITING,The Second Affliated Hospital of Anhui Medical University,Hefei,Anhui,230031,China,RECRUITING,31.86389,117.28083
NCT07339540,the Safety and Efficacy of Targeted BCMA In Vivo LV Injection for Recurrent or Refractory Autoimmune Diseases,RECRUITING,"Tongji Hospital, Affiliated to Tongji Medical College of Huazhong University of Science and Technology",Wuhan,Hubei,430000,China,RECRUITING,30.58333,114.26667
NCT07162571,"This is a Phase I/II Interventional, Open-label Treatment Study Designed to Evaluate the Safety and Efficacy of Anti CD 19/22 CAR- T Cells Immunotherapy for Adults With Relapsed or Refractory Acute Lymphoblastic Leukemia/Lymphoma.",NOT_YET_RECRUITING,"State Institution Minsk Scientific and Practical Center for Surgery, Transplantology, and Dermatology",Minsk,,220087,Belarus,,53.90019,27.56653
NCT06765876,CART123 T Cells in Relapsed or Refractory CD123+ Hematologic Malignancies: A Dose Escalation Phase I Trial,RECRUITING,Ustav hematologie a krevni transfuze / Institute of Hematology and Blood Transfusion,Prague,,12800,Czechia,RECRUITING,50.08804,14.42076
NCT04045847,CD147-CART Cells in Patients With Recurrent Malignant Glioma.,UNKNOWN,National Translational Science Center for Molecular Medicine & Department of Cell Biology,Xi'an,Shaanxi,710032,China,RECRUITING,34.25833,108.92861
NCT05938725,"KYSA-1: A Study of Anti-CD19 Chimeric Antigen Receptor T-Cell (CD19 CAR T) Therapy, in Subjects With Refractory Lupus Nephritis",ACTIVE_NOT_RECRUITING,Stanford University Medical Center,Palo Alto,California,94305,United States,,37.44188,-122.14302
NCT05938725,"KYSA-1: A Study of Anti-CD19 Chimeric Antigen Receptor T-Cell (CD19 CAR T) Therapy, in Subjects With Refractory Lupus Nephritis",ACTIVE_NOT_RECRUITING,University of Colorado,Denver,Colorado,80045,United States,,39.73915,-104.9847
NCT05938725,"KYSA-1: A Study of Anti-CD19 Chimeric Antigen Receptor T-Cell (CD19 CAR T) Therapy, in Subjects With Refractory Lupus Nephritis",ACTIVE_NOT_RECRUITING,University of Massachusetts Worcester,Worcester,Massachusetts,01655,United States,,42.26259,-71.80229
NCT05938725,"KYSA-1: A Study of Anti-CD19 Chimeric Antigen Receptor T-Cell (CD19 CAR T) Therapy, in Subjects With Refractory Lupus Nephritis",ACTIVE_NOT_RECRUITING,Northwell Health,Great Neck,New York,11021,United States,,40.80066,-73.72846
NCT05938725,"KYSA-1: A Study of Anti-CD19 Chimeric Antigen Receptor T-Cell (CD19 CAR T) Therapy, in Subjects With Refractory Lupus Nephritis",ACTIVE_NOT_RECRUITING,Ohio State University Wexner Medical Center,Columbus,Ohio,43210,United States,,39.96118,-82.99879
NCT05938725,"KYSA-1: A Study of Anti-CD19 Chimeric Antigen Receptor T-Cell (CD19 CAR T) Therapy, in Subjects With Refractory Lupus Nephritis",ACTIVE_NOT_RECRUITING,University of Pennsylvania,Philadelphia,Pennsylvania,19104,United States,,39.95238,-75.16362
NCT07349849,Exploratory Study on mRNA Therapeutic Drug Targeting CD19 for the Treatment of Hematologic Malignancies,RECRUITING,"Department of Hematology, Xinqiao Hospital",Chongqing,Chongqing Municipality,400037,China,RECRUITING,29.56026,106.55771
NCT03631576,CD123/CLL1 CAR-T Cells for R/R AML (STPHI_0001),UNKNOWN,Fujian Medical University Union Hospital,Fuzhou,Fujian,350001,China,RECRUITING,26.06139,119.30611
NCT06430736,PRONTO Trial (PRophylactic Versus ON-demand Use of TOcilizumab),RECRUITING,Insel Gruppe AG,Bern,Canton of Bern,3010,Switzerland,RECRUITING,46.94809,7.44744
NCT02846584,a Clinical Research of Sequential CAR-T Bridging HSCT in the Treatment of Relapse/Refractory B-cell Malignancies,UNKNOWN,Southwest Hospital of Third Millitary Medical University,Chongqing,Chongqing Municipality,400000,China,,29.56026,106.55771
NCT06481735,TCR Reserved and Power3 (SPPL3) Gene Knock-out Allogeneic CD19-targeting CAR-T Cell Therapy in r/r B-ALL,RECRUITING,Biotherapeutic Department of Chinese PLA General Hospital,Beijing,Beijing Municipality,100853,China,RECRUITING,39.9075,116.39723
NCT06481735,TCR Reserved and Power3 (SPPL3) Gene Knock-out Allogeneic CD19-targeting CAR-T Cell Therapy in r/r B-ALL,RECRUITING,"Department of Hematology, Chinese PLA General Hospital",Beijing,,,China,RECRUITING,39.9075,116.39723
NCT06481735,TCR Reserved and Power3 (SPPL3) Gene Knock-out Allogeneic CD19-targeting CAR-T Cell Therapy in r/r B-ALL,RECRUITING,"Department of Hematology, Peking Union Medical College Hospital",Beijing,,,China,NOT_YET_RECRUITING,39.9075,116.39723
NCT06481735,TCR Reserved and Power3 (SPPL3) Gene Knock-out Allogeneic CD19-targeting CAR-T Cell Therapy in r/r B-ALL,RECRUITING,"Department of Hematology, Heping Hospital Affiliated to Changzhi Medical College",Changzhi,,,China,RECRUITING,36.18389,113.10528
NCT06481735,TCR Reserved and Power3 (SPPL3) Gene Knock-out Allogeneic CD19-targeting CAR-T Cell Therapy in r/r B-ALL,RECRUITING,"Department of Hematology, Tianjin First Central Hospital",Tianjin,,,China,RECRUITING,39.14222,117.17667
NCT06481735,TCR Reserved and Power3 (SPPL3) Gene Knock-out Allogeneic CD19-targeting CAR-T Cell Therapy in r/r B-ALL,RECRUITING,"Immune Cell Therapy Center, Blood Disease Hospital, Chinese Academy of Medical Sciences",Tianjin,,,China,RECRUITING,39.14222,117.17667
NCT05404048,PD-L1 PET-imaging During CAR T-cell Therapy,ACTIVE_NOT_RECRUITING,University Medical Center Groningen,Groningen,,9713GZ,Netherlands,,53.21917,6.56667
NCT03013712,A Clinical Research of CAR T Cells Targeting EpCAM Positive Cancer,UNKNOWN,IEC of Chengdu Medical College,Chendu,,610500,China,RECRUITING,30.92504,121.03163
NCT04002401,Safety and Efficacy of Axicabtagene Ciloleucel in Combination With Rituximab in Participants With Refractory Large B-Cell Lymphoma,COMPLETED,Banner MD Anderson Cancer Center,Gilbert,Arizona,85234,United States,,33.35283,-111.78903
NCT04002401,Safety and Efficacy of Axicabtagene Ciloleucel in Combination With Rituximab in Participants With Refractory Large B-Cell Lymphoma,COMPLETED,City of Hope National Medical Center,Duarte,California,91010-3012,United States,,34.13945,-117.97729
NCT04002401,Safety and Efficacy of Axicabtagene Ciloleucel in Combination With Rituximab in Participants With Refractory Large B-Cell Lymphoma,COMPLETED,Stanford Cancer Institute,Palo Alto,California,94305,United States,,37.44188,-122.14302
NCT04002401,Safety and Efficacy of Axicabtagene Ciloleucel in Combination With Rituximab in Participants With Refractory Large B-Cell Lymphoma,COMPLETED,UCLA Hematology/Oncology,Santa Monica,California,90404,United States,,34.01949,-118.49138
NCT04002401,Safety and Efficacy of Axicabtagene Ciloleucel in Combination With Rituximab in Participants With Refractory Large B-Cell Lymphoma,COMPLETED,Mayo Clinic Florida,Jacksonville,Florida,32224,United States,,30.33218,-81.65565
NCT04002401,Safety and Efficacy of Axicabtagene Ciloleucel in Combination With Rituximab in Participants With Refractory Large B-Cell Lymphoma,COMPLETED,University of Chicago Medical Center,Chicago,Illinois,60637,United States,,41.85003,-87.65005
NCT04002401,Safety and Efficacy of Axicabtagene Ciloleucel in Combination With Rituximab in Participants With Refractory Large B-Cell Lymphoma,COMPLETED,Loyola University Medical Center,Maywood,Illinois,60153,United States,,41.8792,-87.84312
NCT04002401,Safety and Efficacy of Axicabtagene Ciloleucel in Combination With Rituximab in Participants With Refractory Large B-Cell Lymphoma,COMPLETED,Mayo Clinic,Rochester,Minnesota,55905,United States,,44.02163,-92.4699
NCT04002401,Safety and Efficacy of Axicabtagene Ciloleucel in Combination With Rituximab in Participants With Refractory Large B-Cell Lymphoma,COMPLETED,John Theurer Cancer Center at Hackensack University Medical Center,Hackensack,New Jersey,07601,United States,,40.88593,-74.04347
NCT04002401,Safety and Efficacy of Axicabtagene Ciloleucel in Combination With Rituximab in Participants With Refractory Large B-Cell Lymphoma,COMPLETED,"Columbia University Medical Center, New York Presbyterian Hospital",New York,New York,10032,United States,,40.71427,-74.00597
NCT04002401,Safety and Efficacy of Axicabtagene Ciloleucel in Combination With Rituximab in Participants With Refractory Large B-Cell Lymphoma,COMPLETED,Vanderbilt University Medical Center,Nashville,Tennessee,37232,United States,,36.16589,-86.78444
NCT04002401,Safety and Efficacy of Axicabtagene Ciloleucel in Combination With Rituximab in Participants With Refractory Large B-Cell Lymphoma,COMPLETED,St. David's South Austin Medical Center,Austin,Texas,78704,United States,,30.26715,-97.74306
NCT04002401,Safety and Efficacy of Axicabtagene Ciloleucel in Combination With Rituximab in Participants With Refractory Large B-Cell Lymphoma,COMPLETED,The University of Texas MD Anderson Cancer Center,Houston,Texas,77030,United States,,29.76328,-95.36327
NCT04002401,Safety and Efficacy of Axicabtagene Ciloleucel in Combination With Rituximab in Participants With Refractory Large B-Cell Lymphoma,COMPLETED,Swedish Cancer Institute,Seattle,Washington,98104,United States,,47.60621,-122.33207
NCT02926833,Study of Safety and Efficacy of KTE-C19 in Combination With Atezolizumab in Adults With Refractory Diffuse Large B-Cell Lymphoma (DLBCL),COMPLETED,City of Hope,Duarte,California,91010,United States,,34.13945,-117.97729
NCT02926833,Study of Safety and Efficacy of KTE-C19 in Combination With Atezolizumab in Adults With Refractory Diffuse Large B-Cell Lymphoma (DLBCL),COMPLETED,Stanford Cancer Center,Palo Alto,California,94305,United States,,37.44188,-122.14302
NCT02926833,Study of Safety and Efficacy of KTE-C19 in Combination With Atezolizumab in Adults With Refractory Diffuse Large B-Cell Lymphoma (DLBCL),COMPLETED,H Lee Moffitt Cancer Center,Tampa,Florida,33612,United States,,27.94752,-82.45843
NCT02926833,Study of Safety and Efficacy of KTE-C19 in Combination With Atezolizumab in Adults With Refractory Diffuse Large B-Cell Lymphoma (DLBCL),COMPLETED,Dana Farber Cancer Institute,Boston,Massachusetts,02215,United States,,42.35843,-71.05977
NCT02926833,Study of Safety and Efficacy of KTE-C19 in Combination With Atezolizumab in Adults With Refractory Diffuse Large B-Cell Lymphoma (DLBCL),COMPLETED,University of Texas MD Anderson Cancer Center,Houston,Texas,77030,United States,,29.76328,-95.36327
NCT05085444,A Study of CD19/BCMA Chimeric Antigen Receptor T Cells Therapy for Patients With Refractory Scleroderma,UNKNOWN,"The First Affiliated Hospital, College of Medicine, Zhejiang University",Hangzhou,Zhejiang,310003,China,RECRUITING,30.29365,120.16142
NCT06726564,A Study of MT027 in Patients with Pleural Malignant Tumors,RECRUITING,"Cancer Hospital, Chinese Academy of Medical Sciences",Beijing,,,China,RECRUITING,39.9075,116.39723
NCT06517004,"An Open-label, Single-arm Study of JWCAR201 in the Treatment of Relapsed or Refractory Diffuse Large B-cell Lymphoma",RECRUITING,Fudan University Shanghai Cancer Center,Shanghai,,200032,China,RECRUITING,31.22222,121.45806
NCT05797233,Trial of Anti-CD19 and Anti-CD20 Bicistronic Chimeric Antigen Receptor T Cells for Treating B-Cell Malignancies,ACTIVE_NOT_RECRUITING,National Institutes of Health Clinical Center,Bethesda,Maryland,20892,United States,,38.98067,-77.10026
NCT04888338,Outcomes After Chimeric Antigen Receptor Therapy and Radiation Therapy for Hematologic Malignancies,RECRUITING,M D Anderson Cancer Center,Houston,Texas,77030,United States,RECRUITING,29.76328,-95.36327
NCT05667155,Clinical Study of Cord Blood-derived CAR NK Cells Targeting CD19/CD70 in Refractory/Relapsed B-cell Non-Hodgkin Lymphoma,UNKNOWN,"2nd Affiliated Hospital, School of Medicine, Zhejiang University",Hanzhou,Zhejiang,310009,China,RECRUITING,,
NCT04288726,Allogeneic CD30.CAR-EBVSTs in Patients With Relapsed or Refractory CD30-Positive Lymphomas,RECRUITING,Houston Methodist Hospital,Houston,Texas,77030,United States,RECRUITING,29.76328,-95.36327
NCT04288726,Allogeneic CD30.CAR-EBVSTs in Patients With Relapsed or Refractory CD30-Positive Lymphomas,RECRUITING,Texas Children's Hospital,Houston,Texas,77030,United States,RECRUITING,29.76328,-95.36327
NCT04657861,APRIL CAR-T Cell Therapy for Patients With BCMA/TACI Positive Relapsed and/or Refractory Multiple Myeloma,RECRUITING,"The First Affiliated Hospital，College of Medicine, Zhejiang University",Hangzhou,Zhejiang,310003,China,RECRUITING,30.29365,120.16142
NCT07539610,Evaluation of the Safety and Efficacy of Sup19 CAR-T Cells in Patients With Previously Failed CD19-Targeted Therapy or CD19-Weakly Expressed Hematologic Tumors,NOT_YET_RECRUITING,"Institute of Hematology, Chinese Academy of Medical Sciences & Hospital of Hematology, Chinese Academy of Medical Sciences",Tianjin,Tianjin Municipality,300000,China,,39.14222,117.17667
NCT05576220,Remote Temperature Monitoring of Adult Subjects Undergoing Outpatient Stem Cell Transplant or CAR-T Cell Therapy,UNKNOWN,Medical University of South Carolina,Charleston,South Carolina,29403,United States,,32.77632,-79.93275
NCT04082910,Metoprolol Treatment for Cytokine Release Syndrome in Patients Treated With Chimeric Antigen Receptor T Cells,UNKNOWN,Biotherapeutic Department of Chinese PLA General Hospital,Beijing,Beijing Municipality,100853,China,RECRUITING,39.9075,116.39723
NCT02208362,Genetically Modified T-cells in Treating Patients With Recurrent or Refractory Malignant Glioma,ACTIVE_NOT_RECRUITING,City of Hope Medical Center,Duarte,California,91010,United States,,34.13945,-117.97729
NCT06093841,Relmacabtagene Autoleucel As Second-Line Therapy in Adult Patients with Aggressive B-cell NHL,ACTIVE_NOT_RECRUITING,Sun Yat-sen University Cancer Hospital,Guangzhou,Guangdong,,China,,23.11667,113.25
NCT06093841,Relmacabtagene Autoleucel As Second-Line Therapy in Adult Patients with Aggressive B-cell NHL,ACTIVE_NOT_RECRUITING,Henan Cancer Hospital,Zhengzhou,Henan,,China,,34.75778,113.64861
NCT06093841,Relmacabtagene Autoleucel As Second-Line Therapy in Adult Patients with Aggressive B-cell NHL,ACTIVE_NOT_RECRUITING,The First Affiliated Hospital of Zhengzhou University,Zhengzhou,Henan,,China,,34.75778,113.64861
NCT06093841,Relmacabtagene Autoleucel As Second-Line Therapy in Adult Patients with Aggressive B-cell NHL,ACTIVE_NOT_RECRUITING,Hunan Cancer Hospital,Changsha,Hunan,,China,,28.19874,112.97087
NCT06093841,Relmacabtagene Autoleucel As Second-Line Therapy in Adult Patients with Aggressive B-cell NHL,ACTIVE_NOT_RECRUITING,The First Affiliated Hospital of Soochow University,Suzhou,Jiangsu,215006,China,,31.30408,120.59538
NCT06093841,Relmacabtagene Autoleucel As Second-Line Therapy in Adult Patients with Aggressive B-cell NHL,ACTIVE_NOT_RECRUITING,Shandong Cancer Hospital,Jinan,Shandong,,China,,36.66833,116.99722
NCT06093841,Relmacabtagene Autoleucel As Second-Line Therapy in Adult Patients with Aggressive B-cell NHL,ACTIVE_NOT_RECRUITING,"Ruijin Hospital Affiliated to Shanghai Jiao Tong University School of Medicine,",Shanghai,Shanghai Municipality,200025,China,,31.22222,121.45806
NCT06093841,Relmacabtagene Autoleucel As Second-Line Therapy in Adult Patients with Aggressive B-cell NHL,ACTIVE_NOT_RECRUITING,Institute of Hematology&Hospital of Blood Disease CAMS,Tianjin,Tianjin Municipality,300000,China,,39.14222,117.17667
NCT06093841,Relmacabtagene Autoleucel As Second-Line Therapy in Adult Patients with Aggressive B-cell NHL,ACTIVE_NOT_RECRUITING,Tianjin Cancer Hospital,Tianjin,Tianjin Municipality,,China,,39.14222,117.17667
NCT06093841,Relmacabtagene Autoleucel As Second-Line Therapy in Adult Patients with Aggressive B-cell NHL,ACTIVE_NOT_RECRUITING,The First Affiliated Hospital of Zhejiang University School of Medicine,Hangzhou,Zhejiang,,China,,30.29365,120.16142
NCT06093841,Relmacabtagene Autoleucel As Second-Line Therapy in Adult Patients with Aggressive B-cell NHL,ACTIVE_NOT_RECRUITING,Beijing Tongren Hospital,Beijing,,,China,,39.9075,116.39723
NCT06093841,Relmacabtagene Autoleucel As Second-Line Therapy in Adult Patients with Aggressive B-cell NHL,ACTIVE_NOT_RECRUITING,Peking Union Medical College Hospital,Beijing,,,China,,39.9075,116.39723
NCT06093841,Relmacabtagene Autoleucel As Second-Line Therapy in Adult Patients with Aggressive B-cell NHL,ACTIVE_NOT_RECRUITING,Jiangsu Provincial People's Hospital,Nanjing,,,China,,32.06167,118.77778
NCT04860817,A Study of Anti-CD7 CAR-T Cells in Pediatric and Young Adult Patients With Relapse and Refractory T-ALL/ T-LBL,WITHDRAWN,920th Hospital of Joint Logistics Support Force of People's Liberation Army of China,Kunming,Yunnan,650100 P.R.China,China,,25.03889,102.71833
NCT05893940,Low-Intensity Mechanical Stimulation for Hematologic Malignancy Patients,RECRUITING,Roswell Park Comprehensive Cancer Center,Buffalo,New York,14263,United States,RECRUITING,42.88645,-78.87837
NCT05401318,Tailoring Treatment in Colorectal Cancer,RECRUITING,Akershus University Hospital,Lørenskog,Akershus,1478,Norway,RECRUITING,,
NCT06686524,Clinical Study of CD19 Targeted Universal Chimeric Antigen Receptor T Lymphocytes (UCAR-T) for the Treatment of Refractory Juvenile Dermatomyositis (RJDM),RECRUITING,"Children's Hospital Zhejiang University School of Medicine, Hangzhou, zhejiang",Hangzhou,Zhejiang,,China,RECRUITING,30.29365,120.16142
NCT05627323,CAR T Cells in Patients With MMP2+ Recurrent or Progressive Glioblastoma,ACTIVE_NOT_RECRUITING,City of Hope Medical Center,Duarte,California,91010,United States,,34.13945,-117.97729
NCT05627323,CAR T Cells in Patients With MMP2+ Recurrent or Progressive Glioblastoma,ACTIVE_NOT_RECRUITING,St. David's South Austin Medical Center - Sarah Cannon - Austin,Austin,Texas,78704,United States,,30.26715,-97.74306
NCT04272125,Safety and Efficacy of CD123-Targeted CAR-T Therapy for Relapsed/Refractory Acute Myeloid Leukemia,UNKNOWN,Chongqing University Cancer Hospital,Chongqing,Chongqing Municipality,,China,RECRUITING,29.56026,106.55771
NCT07458659,Clinical Study of BCMA-Targeted CAR T-Cell Injection in the Treatment of Patients With Relapsed/Refractory Multiple Myeloma,NOT_YET_RECRUITING,King Chulalongkorn Memorial Hospital,Bangkok,Pathumwan,10330,Thailand,,13.75398,100.50144
NCT06659588,Study of Populations at Risk of Developing Chronic Hepatitis Linked to Chronic Enteric Virus Infection in Patients With Primary Immunodeficiency and Secondary Humoral Deficiency,RECRUITING,Hôpital Saint-Louis,Paris,,75010,France,RECRUITING,48.85341,2.3488
NCT06659588,Study of Populations at Risk of Developing Chronic Hepatitis Linked to Chronic Enteric Virus Infection in Patients With Primary Immunodeficiency and Secondary Humoral Deficiency,RECRUITING,Hôpital Cochin,Paris,,75014,France,RECRUITING,48.85341,2.3488
NCT06659588,Study of Populations at Risk of Developing Chronic Hepatitis Linked to Chronic Enteric Virus Infection in Patients With Primary Immunodeficiency and Secondary Humoral Deficiency,RECRUITING,Hôpital Necker-Enfants Malades,Paris,,75015,France,RECRUITING,48.85341,2.3488
NCT04532203,A Study of CAR-T Cells Therapy for Patients With Relapsed and/or Refractory Central Nervous System Hematological Malignancies,RECRUITING,"The First Affiliated Hospital，College of Medicine, Zhejiang University",Hangzhou,Zhejiang,310003,China,RECRUITING,30.29365,120.16142
NCT05514327,A Study of Ultra-fraction Radiotherapy Bridging CART in R/R DLBCL,RECRUITING,Peking Union Medical College Hospital,Beijing,Beijing Municipality,100730,China,RECRUITING,39.9075,116.39723
NCT06064903,CD7-CAR-T Cells in Pediatric Relapsed/Refractory CD7+ T-ALL/LL,RECRUITING,Ospedale Pediatrico Bambino Gesù,Rome,Rome,00165,Italy,RECRUITING,41.89193,12.51133
NCT06760936,Pixantrone as Bridging Therapy to Allogenic Transplant or CAR-T Cell Therapy in DLBCL Patients,ACTIVE_NOT_RECRUITING,IRCCS Azienda Ospedaliero - Universitaria di Bologna,Bologna,,40138,Italy,,44.49381,11.33875
NCT03054298,CAR T Cells in Mesothelin Expressing Cancers,COMPLETED,University of Pennsylvania,Philadelphia,Pennsylvania,19104,United States,,39.95238,-75.16362
NCT05420493,Clinical Study of Chimeric Antigen Receptor T Lymphocytes (CAR-T) in the Treatment of Relapsed/Refractory Non-Hodgkin Lymphoma,UNKNOWN,Shandong Second Provincial General Hospital,Jinan,Shandong,250000,China,RECRUITING,36.66833,116.99722
NCT04340167,Study of Anti-CD22 CAR-T Cells Treating Leukemia Children,COMPLETED,Beijing Boren Hospital,Beijing,Beijing Municipality,100000,China,,39.9075,116.39723
NCT07398963,Clinical Study of Oncolytic Vaccinia VIrus Delivering Targeted CD19 in Vivo CAR-T/M Therapy for Refractory/Relapsed B-cell Lymphoma,RECRUITING,"The Second Affiliated Hospital, Zhejiang University School of Medicine",Hangzhou,Zhejiang,,China,RECRUITING,30.29365,120.16142
NCT05620706,Study of GPC-3 CAR-T Cells in Treating With Hepatocellular Carcinoma,RECRUITING,Li Yu,Shenzhen,Guangdong,518000,China,RECRUITING,22.54554,114.0683
NCT04691284,Microbiome in Cancer Patients With High Dose Chemotherapy With Stem Cell Transplantation,RECRUITING,National Cancer Institute,Bratislava,Slovakia,83310,Slovakia,RECRUITING,48.14816,17.10674
NCT04689659,"Multi-centers, Open-Label, Phase 2 Study to Evaluate the Efficacy and Safety of Donor-Derived CD7 CAR T Cells in Subjects With Relapsed or Refractory T-cell Leukemia/Lymphoma",COMPLETED,Beijing Boren Hospital,Beijing,Beijing Municipality,100000,China,,39.9075,116.39723
NCT06572956,Clinical Study on the Safety and Efficacy of CAR-T/CAR-NK Cells in the Treatment of Recurrent Refractory or Unresectable Solid Tumors,ACTIVE_NOT_RECRUITING,Shandong Province,Jinan,Shandong,250000,China,,36.66833,116.99722
NCT06554951,Study of Extracellular Vesicles (EV) in Patients Undergoing CAR-T Cell Therapies,RECRUITING,IRCCS Azienda Ospedaliero-Universitaria di Bologna,Bologna,Bologna,40138,Italy,RECRUITING,44.49381,11.33875
NCT06197672,Chimeric Antigen Receptor T Cell Redirected to Target CD4 Positive Relapsed Refractory Acute Myeloid Leukemia (AML ) as a Bridge to Allogeneic Stem Cell Transplant,RECRUITING,University of Miami Sylvester Comprehensive Cancer Center,Miami,Florida,33136,United States,RECRUITING,25.77427,-80.19366
NCT06197672,Chimeric Antigen Receptor T Cell Redirected to Target CD4 Positive Relapsed Refractory Acute Myeloid Leukemia (AML ) as a Bridge to Allogeneic Stem Cell Transplant,RECRUITING,Indiana University Melvin and Bren Simon Comprehensive Cancer Center,Indianapolis,Indiana,46202,United States,RECRUITING,39.76838,-86.15804
NCT06197672,Chimeric Antigen Receptor T Cell Redirected to Target CD4 Positive Relapsed Refractory Acute Myeloid Leukemia (AML ) as a Bridge to Allogeneic Stem Cell Transplant,RECRUITING,Riley Hospital for Children,Indianapolis,Indiana,46202,United States,RECRUITING,39.76838,-86.15804
NCT06197672,Chimeric Antigen Receptor T Cell Redirected to Target CD4 Positive Relapsed Refractory Acute Myeloid Leukemia (AML ) as a Bridge to Allogeneic Stem Cell Transplant,RECRUITING,The University of Texas MD Anderson Cancer Center,Houston,Texas,77030,United States,RECRUITING,29.76328,-95.36327
NCT07106736,MRD-Adaptive Guided Immunotherapy With CAR-T for Transplant-Ineligible Patients With Multiple Myeloma,RECRUITING,Institute of Hematology and Blood Diseases Hospital Chinese Academy of Medical Sciences,Tianjin,Tianjin Municipality,,China,RECRUITING,39.14222,117.17667
NCT06900764,A Study of CAR-T Cells in Subjects With Systemic Lupus Erythematosus,NOT_YET_RECRUITING,Wuhan Union Hospital,Wuhan,Hubei,430000,China,,30.58333,114.26667
NCT03068416,"CD19-targeting, 3rd Generation CAR T Cells for Refractory B Cells Malignancy",COMPLETED,"Uppsala University Hospital, Dept of Oncology",Uppsala,,75185,Sweden,,59.85882,17.63889
NCT02992834,Anti-CD19:TCRζ Chimeric Antigen Receptor-T Cells in the Treatment for CD19+ B Cell Lymphoma,UNKNOWN,First People's Hospital of Changzhou,Changzhou,Jiangsu,213003,China,,31.77359,119.95401
NCT06090864,ATLCAR.CD30.CCR4 for CD30+ HL ATLCAR.CD30.CCR4 Cells,RECRUITING,Lineberger Comprehensive Cancer Center,Chapel Hill,North Carolina,27599,United States,RECRUITING,35.9132,-79.05584
NCT05976906,Universal Dual-target NKG2D-NKp44 CAR-T Cells in Advanced Solid Tumors,UNKNOWN,"First affiliated hospital, School of Medicine, Zhejiang University",Hangzhou,,,China,RECRUITING,30.29365,120.16142
NCT02935257,"Immunotherapy for High Risk/Relapsed CD19+ Acute Lymphoblastic Leukaemia, B-cell Non-Hodgkin's Lymphoma (B-NHL) and Chronic Lymphocytic Leukaemia (CLL)/ Small Lymphocytic Lymphoma (SLL) Using CAR T-cells to Target CD19",ACTIVE_NOT_RECRUITING,University College London Hospital,London,,,United Kingdom,,51.50853,-0.12574
NCT06026319,CD79b-19 CAR T Cells in Non-Hodgkin Lymphoma,RECRUITING,Massachusetts General Hospital,Boston,Massachusetts,02114,United States,RECRUITING,42.35843,-71.05977
NCT04012892,Study Evaluating the Efficacy and Safety With CD19CAR-T for Relapsed or Refractory Non-Hodgkin Lymphoma,UNKNOWN,Shenzhen University General Hospital,Shenzhen,,518000,China,RECRUITING,22.54554,114.0683
NCT03392064,"A Phase 1 Study Evaluating the Safety, Tolerability and Efficacy of AMG 119 in Subjects With RR SCLC",SUSPENDED,Research Site,Tampa,Florida,33612,United States,,27.94752,-82.45843
NCT03392064,"A Phase 1 Study Evaluating the Safety, Tolerability and Efficacy of AMG 119 in Subjects With RR SCLC",SUSPENDED,Research Site,Houston,Texas,77030,United States,,29.76328,-95.36327
NCT05888493,A Phase III Trial Comparing Tisagenlecleucel to Standard of Care (SoC) in Adult Participants With r/r Follicular Lymphoma,ACTIVE_NOT_RECRUITING,Novartis Investigative Site,Camperdown,New South Wales,2050,Australia,,-33.88965,151.17642
NCT05888493,A Phase III Trial Comparing Tisagenlecleucel to Standard of Care (SoC) in Adult Participants With r/r Follicular Lymphoma,ACTIVE_NOT_RECRUITING,Novartis Investigative Site,Clayton,Victoria,3168,Australia,,-37.91667,145.11667
NCT05888493,A Phase III Trial Comparing Tisagenlecleucel to Standard of Care (SoC) in Adult Participants With r/r Follicular Lymphoma,ACTIVE_NOT_RECRUITING,Novartis Investigative Site,Melbourne,Victoria,3004,Australia,,-37.814,144.96332
NCT05888493,A Phase III Trial Comparing Tisagenlecleucel to Standard of Care (SoC) in Adult Participants With r/r Follicular Lymphoma,ACTIVE_NOT_RECRUITING,Novartis Investigative Site,Nedlands,Western Australia,6009,Australia,,-31.98184,115.8073
NCT05888493,A Phase III Trial Comparing Tisagenlecleucel to Standard of Care (SoC) in Adult Participants With r/r Follicular Lymphoma,ACTIVE_NOT_RECRUITING,Novartis Investigative Site,Salzburg,,5020,Austria,,47.79941,13.04399
NCT05888493,A Phase III Trial Comparing Tisagenlecleucel to Standard of Care (SoC) in Adult Participants With r/r Follicular Lymphoma,ACTIVE_NOT_RECRUITING,Novartis Investigative Site,Montreal,Quebec,H1T 2M4,Canada,,45.50884,-73.58781
NCT05888493,A Phase III Trial Comparing Tisagenlecleucel to Standard of Care (SoC) in Adult Participants With r/r Follicular Lymphoma,ACTIVE_NOT_RECRUITING,Novartis Investigative Site,Ostrava,Poruba,708 52,Czechia,,49.83465,18.28204
NCT05888493,A Phase III Trial Comparing Tisagenlecleucel to Standard of Care (SoC) in Adult Participants With r/r Follicular Lymphoma,ACTIVE_NOT_RECRUITING,Novartis Investigative Site,Budapest,,H-1097,Hungary,,47.49835,19.04045
NCT05888493,A Phase III Trial Comparing Tisagenlecleucel to Standard of Care (SoC) in Adult Participants With r/r Follicular Lymphoma,ACTIVE_NOT_RECRUITING,Novartis Investigative Site,Poznan,Greater Poland Voivodeship,60-355,Poland,,52.40692,16.92993
NCT05888493,A Phase III Trial Comparing Tisagenlecleucel to Standard of Care (SoC) in Adult Participants With r/r Follicular Lymphoma,ACTIVE_NOT_RECRUITING,Novartis Investigative Site,Gliwice,Silesian Voivodeship,44-101,Poland,,50.29761,18.67658
NCT05888493,A Phase III Trial Comparing Tisagenlecleucel to Standard of Care (SoC) in Adult Participants With r/r Follicular Lymphoma,ACTIVE_NOT_RECRUITING,Novartis Investigative Site,Gdansk,,80-952,Poland,,54.35227,18.64912
NCT05888493,A Phase III Trial Comparing Tisagenlecleucel to Standard of Care (SoC) in Adult Participants With r/r Follicular Lymphoma,ACTIVE_NOT_RECRUITING,Novartis Investigative Site,Lodz,,93-513,Poland,,51.77058,19.47395
NCT05888493,A Phase III Trial Comparing Tisagenlecleucel to Standard of Care (SoC) in Adult Participants With r/r Follicular Lymphoma,ACTIVE_NOT_RECRUITING,Novartis Investigative Site,Singapore,,119074,Singapore,,1.28967,103.85007
NCT05888493,A Phase III Trial Comparing Tisagenlecleucel to Standard of Care (SoC) in Adult Participants With r/r Follicular Lymphoma,ACTIVE_NOT_RECRUITING,Novartis Investigative Site,Bratislava,,83310,Slovakia,,48.14816,17.10674
NCT05888493,A Phase III Trial Comparing Tisagenlecleucel to Standard of Care (SoC) in Adult Participants With r/r Follicular Lymphoma,ACTIVE_NOT_RECRUITING,Novartis Investigative Site,Seoul,,03080,South Korea,,37.566,126.9784
NCT05888493,A Phase III Trial Comparing Tisagenlecleucel to Standard of Care (SoC) in Adult Participants With r/r Follicular Lymphoma,ACTIVE_NOT_RECRUITING,Novartis Investigative Site,Seoul,,03722,South Korea,,37.566,126.9784
NCT05888493,A Phase III Trial Comparing Tisagenlecleucel to Standard of Care (SoC) in Adult Participants With r/r Follicular Lymphoma,ACTIVE_NOT_RECRUITING,Novartis Investigative Site,Seoul,,05505,South Korea,,37.566,126.9784
NCT05888493,A Phase III Trial Comparing Tisagenlecleucel to Standard of Care (SoC) in Adult Participants With r/r Follicular Lymphoma,ACTIVE_NOT_RECRUITING,Novartis Investigative Site,Seoul,,06351,South Korea,,37.566,126.9784
NCT05888493,A Phase III Trial Comparing Tisagenlecleucel to Standard of Care (SoC) in Adult Participants With r/r Follicular Lymphoma,ACTIVE_NOT_RECRUITING,Novartis Investigative Site,Seoul,,06591,South Korea,,37.566,126.9784
NCT05888493,A Phase III Trial Comparing Tisagenlecleucel to Standard of Care (SoC) in Adult Participants With r/r Follicular Lymphoma,ACTIVE_NOT_RECRUITING,Novartis Investigative Site,Santiago Compostela,A Coruna,15706,Spain,,,
NCT05888493,A Phase III Trial Comparing Tisagenlecleucel to Standard of Care (SoC) in Adult Participants With r/r Follicular Lymphoma,ACTIVE_NOT_RECRUITING,Novartis Investigative Site,L'Hospitalet de Llobregat,Barcelona,08907,Spain,,41.35967,2.10028
NCT05888493,A Phase III Trial Comparing Tisagenlecleucel to Standard of Care (SoC) in Adult Participants With r/r Follicular Lymphoma,ACTIVE_NOT_RECRUITING,Novartis Investigative Site,Santander,Cantabria,39008,Spain,,43.46589,-3.80493
NCT05888493,A Phase III Trial Comparing Tisagenlecleucel to Standard of Care (SoC) in Adult Participants With r/r Follicular Lymphoma,ACTIVE_NOT_RECRUITING,Novartis Investigative Site,El Palmar,Murcia,30120,Spain,,37.93939,-1.16095
NCT05888493,A Phase III Trial Comparing Tisagenlecleucel to Standard of Care (SoC) in Adult Participants With r/r Follicular Lymphoma,ACTIVE_NOT_RECRUITING,Novartis Investigative Site,Barcelona,,08035,Spain,,41.38879,2.15899
NCT05888493,A Phase III Trial Comparing Tisagenlecleucel to Standard of Care (SoC) in Adult Participants With r/r Follicular Lymphoma,ACTIVE_NOT_RECRUITING,Novartis Investigative Site,Córdoba,,14004,Spain,,37.89155,-4.77275
NCT05888493,A Phase III Trial Comparing Tisagenlecleucel to Standard of Care (SoC) in Adult Participants With r/r Follicular Lymphoma,ACTIVE_NOT_RECRUITING,Novartis Investigative Site,Madrid,,28034,Spain,,40.4165,-3.70256
NCT05888493,A Phase III Trial Comparing Tisagenlecleucel to Standard of Care (SoC) in Adult Participants With r/r Follicular Lymphoma,ACTIVE_NOT_RECRUITING,Novartis Investigative Site,Salamanca,,37007,Spain,,40.96882,-5.66388
NCT05888493,A Phase III Trial Comparing Tisagenlecleucel to Standard of Care (SoC) in Adult Participants With r/r Follicular Lymphoma,ACTIVE_NOT_RECRUITING,Novartis Investigative Site,Kaohsiung City,,83301,Taiwan,,22.61626,120.31333
NCT05888493,A Phase III Trial Comparing Tisagenlecleucel to Standard of Care (SoC) in Adult Participants With r/r Follicular Lymphoma,ACTIVE_NOT_RECRUITING,Novartis Investigative Site,Taichung,,407219,Taiwan,,24.1469,120.6839
NCT05888493,A Phase III Trial Comparing Tisagenlecleucel to Standard of Care (SoC) in Adult Participants With r/r Follicular Lymphoma,ACTIVE_NOT_RECRUITING,Novartis Investigative Site,Taipei,,10002,Taiwan,,25.05306,121.52639
NCT03310619,A Safety and Efficacy Trial of JCAR017 Combinations in Subjects With Relapsed/Refractory B-cell Malignancies,COMPLETED,Local Institution - 011,Duarte,California,91010,United States,,34.13945,-117.97729
NCT03310619,A Safety and Efficacy Trial of JCAR017 Combinations in Subjects With Relapsed/Refractory B-cell Malignancies,COMPLETED,Local Institution - 022,Atlanta,Georgia,30342,United States,,33.749,-84.38798
NCT03310619,A Safety and Efficacy Trial of JCAR017 Combinations in Subjects With Relapsed/Refractory B-cell Malignancies,COMPLETED,Local Institution - 014,Chicago,Illinois,60611-5975,United States,,41.85003,-87.65005
NCT03310619,A Safety and Efficacy Trial of JCAR017 Combinations in Subjects With Relapsed/Refractory B-cell Malignancies,COMPLETED,Local Institution - 012,Boston,Massachusetts,02114,United States,,42.35843,-71.05977
NCT03310619,A Safety and Efficacy Trial of JCAR017 Combinations in Subjects With Relapsed/Refractory B-cell Malignancies,COMPLETED,Local Institution - 021,Boston,Massachusetts,02215,United States,,42.35843,-71.05977
NCT03310619,A Safety and Efficacy Trial of JCAR017 Combinations in Subjects With Relapsed/Refractory B-cell Malignancies,COMPLETED,Local Institution - 015,Omaha,Nebraska,68198-7680,United States,,41.25626,-95.94043
NCT03310619,A Safety and Efficacy Trial of JCAR017 Combinations in Subjects With Relapsed/Refractory B-cell Malignancies,COMPLETED,Local Institution - 016,Philadelphia,Pennsylvania,19104,United States,,39.95238,-75.16362
NCT03310619,A Safety and Efficacy Trial of JCAR017 Combinations in Subjects With Relapsed/Refractory B-cell Malignancies,COMPLETED,Local Institution - 020,Pittsburgh,Pennsylvania,15232,United States,,40.44062,-79.99589
NCT03310619,A Safety and Efficacy Trial of JCAR017 Combinations in Subjects With Relapsed/Refractory B-cell Malignancies,COMPLETED,Local Institution - 013,Houston,Texas,77030,United States,,29.76328,-95.36327
NCT06532799,TIL Therapy Combined With Pembrolizumab for Advanced or Metastatic Refractory Stomach and Esophageal Cancer,RECRUITING,District One Hospital,Beijing,Beijing Municipality,086-373,China,RECRUITING,39.9075,116.39723
NCT02349698,A Clinical Research of CAR T Cells Targeting CD19 Positive Malignant B-cell Derived Leukemia and Lymphoma,UNKNOWN,Southwest Hospital of Third Millitary Medical University,Chongqing,Chongqing Municipality,400000,China,RECRUITING,29.56026,106.55771
